index,cafe_name,city,province,phone_number,cost,work_start,work_end,cafe_address,hookah,internet,delivery,smoking,open_space,live_music,parking,pos,food_quality,service,cost_value,environment,follower,lat,lon
0, رولی (تبریز) ,tabriz,اول عباسی,04135243397,2,11:00:00,23:00:00,اول عباسی، به طرف منصور,False,False,False,False,False,False,False,True,0,0,0,0,0,38.08003568793997,46.30858540534973
1, لاله زار (تبریز) ,tabriz,چایکنار,04132820831,2,11:00:00,23:00:00,چایکنار، بعد از کارواش شهرداری، نرسیده به بلوار آذربایجان,False,False,False,False,False,False,False,True,0,0,0,0,0,38.09703601625928,46.27109885215759
2, سانیز ,tabriz,پل سنگی,04133346101,2,11:00:00,23:00:00,پل سنگی، چایکنار,False,False,False,False,False,False,False,True,0,0,0,0,0,38.07700438693774,46.3165816613133
3, آسا ,tabriz,ولیعصر,04133314649,2,08:30:00,23:30:00,ولیعصر، خیابان شریعتی، نرسیده به میدان بهارستان، طبقه فوقانى قنادى کریمی,False,False,False,False,False,False,False,True,0,0,0,0,0,38.06474035380125,46.3593428581953
4, کلبه (تبریز) ,tabriz,ولیعصر,04133249214,2,10:00:00,23:30:00,ولیعصر، نگین پارک,False,True,False,False,False,False,False,True,0,0,0,0,0,38.06683464425639,46.35102465748787
5, سن سون (تبریز) ,tabriz,بلوار 29 بهمن,09356163131,2,12:00:00,23:00:00,بلوار 29 بهمن، اول جاده شاهگلی، روبه‌روی راهنمایی,False,False,False,False,False,False,False,True,0,0,0,0,0,38.05448131849337,46.34750157594681
6, گرامافون (تبریز) ,tabriz,خیابان شریعتی جنوبی,09056182325,2,11:00:00,00:00:00,خیابان شریعتی جنوبی،نبش کوچه آرام اول,False,True,False,False,False,False,False,True,0,0,0,0,0,38.05980874139353,46.28330826759338
7, باداس (تبریز) ,tabriz,رشدیه,04136660742,2,08:00:00,23:00:00,رشدیه، ابتدای جاده سلامت,False,True,False,False,False,False,False,True,0,0,0,0,0,38.08056139993987,46.37023329734802
8, اوربان ,tabriz,خيابان شريعتي(شهناز),04135567707,1,09:00:00,23:00:00,خيابان شريعتي(شهناز)، خيابان والمان,False,True,False,False,False,False,False,True,0,0,0,0,0,38.07130282660564,46.28806382417679
9, رز (تبریز) ,tabriz,اول جاده ایل گلی,04133323024,2,11:00:00,00:00:00,اول جاده ایل گلی، الهی پرست، نپش ۲۴ متری,False,True,False,False,False,False,False,True,0,0,0,0,0,38.04719547952869,46.34753108024597
10, قهوه پدر ,tabriz,شریعتی جنوبی,04135568285,1,12:00:00,23:00:00,شریعتی جنوبی، کوچه‌های سنگی,False,False,False,False,False,False,False,True,0,0,0,0,0,38.073517,46.288039
11, کافه پیتزا8 ,tabriz,اتوبان پاسداران,36697408,2,11:00:00,23:00:00,اتوبان پاسداران،50متر بالاتر از لاله پارک,False,True,True,True,False,True,False,True,0,0,0,0,0,38.0643471,46.3949673
12, لانژ ,tabriz,رشديه,04136669702,2,11:00:00,00:00:00,رشديه ، الهيه،كوى سبلان,False,False,True,False,False,False,False,True,0,0,0,0,0,38.07664274890498,46.37397229671478
13, پاییز 81 ,tabriz,خیابان ولیعصر,33260257,1,10:00:00,23:00:00,خیابان ولیعصر ، فلکه بزرگ ، مرکز خرید میلاد نور,False,True,False,True,False,False,True,True,0,0,0,0,0,38.0563902600036,46.3612860984873
14, عمارت ,tabriz,پارک ائل گلی,,2,11:00:00,00:00:00,پارک ائل گلی، عمارت شاه گلی,False,True,False,True,False,True,True,True,4,5,5,4,0,38.0256705271673,46.3656959684235
15, امیر شکلات پلاس ,tabriz,خیابان ولیعصر,09141150840,2,11:00:00,00:00:00,خیابان ولیعصر ، پارک ولیعصر ، مجتمع تفریحی,False,True,False,True,False,False,False,True,0,0,0,0,0,38.0603421738394,46.3477537480342
16, سیزده ,tabriz,وليعصر,33291989,2,18:00:00,00:00:00,وليعصر ، فروغي ، خيابان شيخ محمد خياباني ، كافه ١٣,False,True,True,True,False,True,False,True,0,0,0,0,0,38.0646669740412,46.3549829640518
17, رکس ,tabriz,ميدان فهميده,36600670,2,10:30:00,23:30:00,ميدان فهميده، مجتمع لاله پارك، طبقه1,False,False,True,False,False,False,False,True,0,0,0,0,0,38.0721008903162,46.3685031132438
18, فرست کلاس (جمهوری) ,karaj,جهانشهر,34438500,2,11:00:00,00:00:00,جهانشهر، کنار گذر پل روحانی، نرسیده به میدان جمهوری، نبش کوچه میثم,False,True,False,False,False,False,False,True,0,0,0,0,0,35.82468347019756,50.97659358318362
19, مهراد ,karaj,عظیمیه,02635777,2,11:00:00,00:00:00,عظیمیه، بلوار شریعتی، طبقه چهارم,False,True,False,False,False,False,True,True,0,0,0,0,0,35.83522828600601,51.01366281509399
20, لوکاس ,karaj,مهرشهر,02633425186,2,11:00:00,00:00:00,مهرشهر، بلوار شهرداری، خیابان صد و نه، پلاک422/2,False,False,True,False,True,False,False,True,5,5,5,4,0,35.80097178542949,50.90738967061043
21, عمارت آسمانی ,karaj,جهانشهر,34441067,2,11:00:00,00:00:00,جهانشهر، بلوار ماهان شرقی، خیابان استانداری شمالی,False,False,False,False,False,False,False,True,0,0,0,0,0,35.83511086412926,50.98645985126495
22, کاویچ (گوهردشت) ,karaj,گوهردشت,09015266615,2,07:00:00,00:00:00,گوهردشت،بلوار آزادی،بین فلکه اول وسه باندی,False,False,True,False,False,False,False,True,0,0,0,0,0,35.84150684159402,50.97120210528374
23, ونهان (گوهردشت) ,karaj,گوهردشت,02634447769,2,09:00:00,00:00:00,گوهردشت، خیابان  اصلي گوهردشت، خیابان داریوش,True,False,False,False,False,False,False,True,0,0,0,0,0,35.84356044655361,50.96744298934936
24, شاد (کرج) ,karaj,گوهر دشت,02634437777,2,11:00:00,23:00:00,گوهر دشت، بلوار رستاخیز، نبش خیابان 12,False,False,False,False,False,False,False,True,0,0,0,0,0,35.86071776504637,50.974942445755
25, عمو قباد (کرج) ,karaj,گوهردشت,,2,09:00:00,23:00:00,گوهردشت،خیابان سیزدهم غربي(فاز٢)، نرسیده به رستاخیز,False,False,False,False,False,False,False,True,0,0,0,0,0,35.86105687381065,50.97697019577026
26, آنان (گوهردشت) ,karaj,خیابان گوهردشت,02634409701,2,08:00:00,23:45:00,خیابان گوهردشت، بلوار رستاخیز، نبش خیابان دهم شرقی,False,False,False,False,False,False,False,True,0,0,0,0,0,35.85923088641566,50.97433090209961
27, بیلیونرز (کرج) ,karaj,عظیمیه,32513737,2,11:00:00,00:00:00,عظیمیه ، میدان ‌طالقانی ، به‌سمت بام نبش گلستان‌۲۰,True,True,False,False,False,False,False,True,0,0,0,0,0,35.84716309566336,51.01256847381592
28, تی شی نی (کرج) ,karaj,بام,32535553,2,09:00:00,00:00:00,بام،عظيميه، بلوارطالقانی شمالی، نبش گلستان۲۰,True,False,False,False,False,False,False,True,2,3,2,3,0,35.84734354994484,51.0128903388977
29, کاراکتر (مهرشهر) ,karaj,مهرشهر,02691010091,2,08:00:00,00:00:00,مهرشهر، بلوار شهرداری، چهارراه مسیح پاکدل، جنب مرکز خرید پاتریس,True,True,False,True,False,False,False,True,2,1,2,2,0,35.7945823314864,50.89561343193054
30, شهر خوردو  ,karaj,مهرشهر,1596,2,08:00:00,00:00:00,مهرشهر، بلوار شهرداری، نبش شهرداری 205,False,True,True,False,False,False,False,True,0,0,0,0,0,35.79833187415961,50.901820063591
31, قلب خورشید (کرج) ,karaj,عظیمیه,09190227841,2,12:00:00,23:00:00,عظیمیه ، بلوار شریعتی ،خیابان نیک نژاد شمالی,False,False,False,False,False,False,False,True,0,0,0,0,0,35.8357675546156,51.01483225822449
32, پدرا (عظیمیه) ,karaj,میدان اسبی,02632555961,2,12:00:00,00:00:00,میدان اسبی، بلوار استقلال شمالی، نبش کوچه میر زنده دل,False,True,False,False,False,False,False,True,4,4,4,4,0,35.83677867337904,51.01997673511505
33, لوئیجی ,karaj,مهرشهر,02634990773,2,10:00:00,00:00:00,مهرشهر، بلوار شهرداری، نبش خیابان 205,False,False,True,False,False,False,False,True,0,0,0,0,0,35.79829271535936,50.90180933475494
34, فانوس (کرج) ,karaj,جهانشهر,02634205700,2,09:00:00,00:00:00,جهانشهر، نبش میدان مدنی، نبش خیابان مهران,False,True,False,False,False,False,False,True,0,0,0,0,0,35.82809132959332,50.9899091720581
35, رست (کرج) ,karaj,عظیمیه,02632532193,2,11:00:00,23:00:00,عظیمیه، بالاتر از میدان استقلال( میدان اسبی),False,True,False,False,False,False,False,True,4,4,4,4,0,35.83734402448996,51.02004647254944
36, دارچین ,karaj,جهانشهر,02634409628,2,08:30:00,23:00:00,جهانشهر،میدان هلال احمر،خیابان هلال احمر،نبش کوچه سنبل,False,True,False,True,True,False,False,True,4,4,4,4,0,35.82431546347022,50.98786801099777
37, سون (کرج) ,karaj,جهانشهر,02634209363,2,10:00:00,00:00:00,جهانشهر، استانداری شمالی,True,True,False,False,False,False,False,True,0,0,0,0,0,35.83540224402251,50.98656177520752
38, کهن دیاران ,karaj,بلوار شورا جنوبی,02632218178,2,12:00:00,00:00:00,بلوار شورا جنوبی، کافه رستوران کهن دیاران,False,True,False,False,False,False,False,True,0,0,0,0,0,35.8198174,51.0164923
39, بخارا (کرج) ,karaj,خیابان هلال احمر,02634473334,2,09:00:00,23:00:00,خیابان هلال احمر، نبش فتوح,False,True,False,False,False,False,False,True,4,2,5,2,0,35.82492059276356,50.98788142204285
40, ژوزک (فودکورت برج میلاد کرج) ,karaj,عظیمیه,22093205,2,08:00:00,00:00:00,عظیمیه، بلوار طالقانی شمالی، بعد از پل آزادگان، نبش خیابان حسینی، برج میلاد، طبقه 2,False,True,False,False,False,False,True,True,0,0,0,0,0,35.83223234294451,50.99961407482624
41, ژوزک (مهرشهر) ,karaj,مهرشهر,22093205,2,08:00:00,00:00:00,مهرشهر، چهارباندی، فاز 3، نبش خیابان 307، پلاک 298,False,True,False,False,False,False,False,True,0,0,0,0,0,35.79361527538714,50.8901309967041
42, اکسپوز ,karaj,مهرشهر,02633422874,2,09:00:00,00:00:00,مهرشهر، بلوار شهرداری، خیابان 341,False,False,True,False,True,False,False,True,5,5,5,5,0,35.7900210739758,50.89294195175171
43, بلانچ (میدان عطار) ,karaj,کرج,02633554697,2,08:00:00,23:30:00,کرج ، خیابان درختی ، میدان عطار,False,False,False,False,False,False,False,True,4,4,4,4,0,35.81655167489695,50.95307774841785
44, مانا ,karaj,مهرویلا,02634236058,2,12:00:00,00:00:00,مهرویلا، ابتدای خیابان درختی، جنب بانک ملت,True,True,False,True,True,False,False,True,0,0,0,0,0,35.81541632233973,50.95848441123962
45, شمس ,karaj,مهرشهر,2633400188,2,12:00:00,23:00:00,مهرشهر، بلوار شهرداری، نبش خیابان 109,True,True,True,True,True,False,True,True,1,2,4,2,0,35.80091848771776,50.9078899025917
46, رویال پالاس (مهرشهر) ,karaj,مهرشهر,02633411623,2,11:00:00,00:00:00,مهرشهر، بلوار شهرداری، انتهای خیابان 109,False,True,False,False,False,False,False,True,2,2,2,2,0,35.8037791102684,50.90240478515625
47, شمس العماره (گوهردشت) ,karaj,گوهردشت خيابان هشتم غربي (فاز دوم ) كاشي 18,02634440452,2,09:00:00,22:00:00,گوهردشت خيابان هشتم غربي (فاز دوم ) كاشي 18,False,True,False,False,False,False,False,True,0,0,0,0,0,35.85300699671814,50.97561836242676
48, کاردو (گلشهر) ,karaj,۴۵متری گلشهر,02633537360,2,11:30:00,23:30:00,۴۵متری گلشهر،نبش کوکب غربی,False,True,True,False,False,False,False,True,0,0,0,0,0,35.82074603105342,50.93640714883804
49, د می ز (عظیمه) ,karaj,عظیمیه,09901863156,3,10:00:00,00:00:00,عظیمیه، میدان طالقانی به سمت بام، نبش ندا شمالى,True,True,False,True,False,False,False,True,1,4,3,3,0,35.84480193313371,51.01040124893188
50, بوفالو (مهرشهر) ,karaj,كرج_مهرشهر بلوار ‎شهرداري(چهارباندي) بين خيابان 213-215,33408952026,2,10:30:00,23:30:00,كرج_مهرشهر بلوار ‎شهرداري(چهارباندي) بين خيابان 213-215,True,True,False,False,False,False,False,True,3,3,3,3,0,35.79639131483837,50.89751243591308
51, دوران (عظیمیه) ,karaj,کرج,02632512141,2,11:00:00,00:00:00,کرج، عظیمیه، میدان بهارستان,True,True,True,False,False,False,False,True,4,4,4,4,0,35.84149053430107,51.01940810680389
52, گارنیش (جهانشهر) ,karaj,‎كرج ميدان جمهوري بلوار ماهان غربي بعد از تالار لوتوس خيابان ارغوان كوچه بهار شرقي,02634474023,2,09:00:00,00:00:00,‎كرج ميدان جمهوري بلوار ماهان غربي بعد از تالار لوتوس خيابان ارغوان كوچه بهار شرقي,True,True,False,False,False,False,False,True,4,5,5,4,0,35.83811593969324,50.97809672355652
53, فرست کلاس (گوهردشت) ,karaj,کرج,02634457327,2,11:00:00,00:00:00,کرج،فلکه اول گوهردشت،خیابان دوم شرقی,True,True,False,False,False,False,False,True,2,2,5,2,0,35.84438013426859,50.9723836183548
54, خلیفه گاردن ,karaj,مهرشهر,02633400607,2,12:00:00,00:00:00,مهرشهر،خ شهرداری،خ صد ،بین خ 116و117,True,True,False,True,True,False,False,True,3,4,4,3,0,35.805378784221,50.9002442657948
55, آرتمیس ,karaj,مهرشهر,02633412347,2,12:00:00,00:00:00,مهرشهر ،مسیح پاکدل شرقی,True,True,False,True,True,False,True,True,5,4,5,4,0,35.79476893015839,50.89556544176639
56, ظفر ,karaj,فلکه اول گوهردشت,02634212369,2,10:00:00,23:00:00,فلکه اول گوهردشت،خیابان آرش،بعد از درب ورودی پارکینگ نیکامال,True,True,True,True,False,False,False,True,5,5,5,5,0,35.84316908073099,50.97254991531372
57, فونگو ,karaj,گوهردشت,02634211196,2,11:00:00,00:00:00,گوهردشت،چهارراه ملك شاه،روبروي پاساژ ملاصدر، نبش پنجم شرقي,False,False,True,False,False,False,False,True,4,4,4,4,0,35.84311847411559,50.97734586328636
58, آن لو (جهانشهر) ,karaj,جهانشهر,02634212397,2,11:00:00,23:00:00,جهانشهر، میدان مدنی، ابتدای خیابان هلال احمر,False,False,False,False,False,False,False,True,0,0,0,0,0,35.82760526890328,50.98804719939209
59, کارزین (کرج) ,karaj,ابتدای جاده مشکین دشت,42268,2,08:30:00,21:30:00,ابتدای جاده مشکین دشت، رزکان نو، مجتمع اکومال,False,False,False,False,False,False,False,True,4,4,4,4,0,35.77428473889014,50.97525894641876
60, نی وی ,karaj,۴۵ متری گلشهر,02634641762,2,11:00:00,23:00:00,۴۵ متری گلشهر،ابتدای بلوار محمدی,False,False,True,False,False,False,False,True,0,0,0,0,0,35.83007558631956,50.93965086411595
61, ژارلس ,karaj,رجایی شهر روبروی دانشگاه آزاد,2634417455,1,09:00:00,00:00:00,رجایی شهر روبروی دانشگاه آزاد,False,False,True,False,False,False,False,True,4,4,4,4,0,35.8538780172429,50.98223833230099
62, وافل ,karaj,کرج- جهانشهر-بلوار مولانا,9016211245,1,12:00:00,23:00:00,کرج- جهانشهر-بلوار مولانا,False,False,False,False,False,False,False,True,5,5,5,5,0,35.83651774073826,50.9843797981739
63, امیر شکلات پلاس (کرج) ,karaj,جهانشهر بلوار مولانا بعد از کسری شمالی,34497653,2,08:30:00,23:00:00,جهانشهر بلوار مولانا بعد از کسری شمالی,False,True,True,False,False,False,False,True,5,5,5,5,0,35.8365416595994,50.9844297543168
64, تی تی ,karaj,"بلوار موذن,خیابان پیروزی جنوبی, نبش نوزدهم",02634344808,2,09:00:00,00:00:00,"بلوار موذن,خیابان پیروزی جنوبی, نبش نوزدهم",True,True,False,True,False,True,False,True,5,5,5,5,0,35.870981,50.97107
65, ریبون ,karaj,میدان والفجر,02632742069,2,10:00:00,23:30:00,میدان والفجر،ابتدای بلوار سرداران,False,False,False,False,False,False,False,True,5,5,5,5,0,35.82054485491297,50.97078770399093
66, کافه سیبیل ,karaj,بلوار ارم,09125640364,2,11:00:00,00:00:00,بلوار ارم ، سه راه شهرداری ،فودکورت مجتمع پاسارگاد,False,True,True,False,False,False,False,True,0,0,0,0,0,35.8142592030287,50.90423673391342
67, دالون ,karaj,بلوار رستاخیز,09300060013,2,08:00:00,00:00:00,بلوار رستاخیز، نبش هفتم غربی، جنب فست فود بکسمات,False,True,True,False,False,False,False,True,4,3,3,5,0,35.85658747776333,50.97183108329773
68, شمس ,karaj,مهرشهر,33400188,2,12:00:00,00:00:00,مهرشهر،بلوار شهرداری،نبش خیابان109,False,True,False,False,False,False,True,True,4,4,5,4,0,35.80095982064016,50.90773165225983
69, بلانچ ,karaj,كرج,9126195499,2,12:00:00,00:00:00,كرج ، عظيميه ، ميدان بهارستان,False,True,False,False,False,False,False,True,3,4,4,3,0,35.84113829595571,51.0207787156105
70, چنین ,karaj,جهــانشهــر,34217217,3,11:30:00,16:00:00,جهــانشهــر، خيابان استاندارى، روبروي كوچه زُهـــــره,False,True,False,False,False,True,False,True,4,4,4,3,0,35.828182,50.985061
71, مازو ,karaj,عظیمیه,32532193,2,08:00:00,00:00:00,عظیمیه ، بلوار استقلال ، ضلع شمالی میدان اسبی,False,False,False,False,False,False,False,True,4,3,3,4,0,35.8371010478949,51.02003502537832
72, هاوانا ,karaj,گوهر دشت,34420566,2,10:00:00,23:00:00,گوهر دشت،خیابان 13غربی ،فاز 2،پلاک 68,False,True,False,True,False,False,False,True,4,5,4,5,0,35.85909176184203,50.97846150398254
73, پلاس ,karaj,عظیمیه,32527730,2,08:00:00,12:00:00,عظیمیه، ضلع جنوب شرقی میدان گلستان,False,True,True,False,False,False,False,True,4,5,5,5,0,35.84034575395969,51.01521179080009
74, الف ,karaj,گوهردشت خیابان هشتم شرقی.پلاک ٧٦,34464570,2,09:00:00,23:30:00,گوهردشت خیابان هشتم شرقی.پلاک ٧٦,False,True,False,False,False,True,False,True,4,4,2,4,0,35.8479456590508,50.9787084635636
75, لانژ ,karaj,عظیمیه,32549212,2,08:00:00,00:00:00,عظیمیه،میدان اسبی،ضلع شمالی پارک ایران زمین,True,True,False,True,False,True,False,True,4,4,5,3,0,35.836773,51.018948
76, داریوش ,karaj,کرج,32556413,2,08:00:00,00:00:00,کرج،عظیمیه،بالاتراز میدان استقلال،نبش کوچه الهام,False,True,False,True,False,True,False,True,2,3,3,2,0,35.8374000872773,51.0199732397867
77, صدایت ,karaj,گوهردشت,34490849,2,11:00:00,23:30:00,گوهردشت،خیابان دوازدهم شرقی طبقه زیرین پاساژ سرخه,False,True,False,True,False,False,False,True,0,0,0,0,0,35.8551681293571,50.9791409567212
78, دیاکو (کرمان) ,kerman,بلوار جمهوری,03432111389,2,11:00:00,00:00:00,بلوار جمهوری ، خیابان هوشنگ مرادی کوچه شماره ۹,True,True,True,False,False,False,False,True,0,0,0,0,0,30.27802584719262,57.02391386032104
79, پنج و نیم ,kerman,خیابان بهمنیار ۲۴,09017765438,2,08:30:00,00:00:00,خیابان بهمنیار ۲۴، انتهای محوطه پارکینگ,False,True,False,True,False,True,False,True,4,3,4,3,0,30.2921987128311,57.0446272194386
80, رویال ,kerman,خیابان فیروزه ابتدای خیابان پروین اعتصامی غربی,3432529021,1,06:45:00,13:00:00,خیابان فیروزه ابتدای خیابان پروین اعتصامی غربی,False,False,True,False,False,False,False,True,0,0,0,0,0,30.28139951825035,57.04883962869644
81, ریتون ,kerman,خیابان بهمنیار,32469231,2,09:00:00,00:00:00,خیابان بهمنیار ، بهمنیار 24,False,True,False,True,False,False,False,True,0,0,0,0,0,30.29431290084265,57.04653024673462
82, پیانو ,kerman,بلوار جمهوری,09131437692,2,09:30:00,23:00:00,بلوار جمهوری،  خیابان والفجر جنوبی ، نرسیده به بلوار شهید صدوقی,False,True,False,False,False,False,False,True,0,0,0,0,0,30.2832883991106,57.04330086708069
83, شربت چیان  ,kerman,بلوار شیراز,32472087,2,06:30:00,22:00:00,بلوار شیراز،خیابان شهیدان قطبی نژاد (کوچه درختی)،نبش 11,False,True,False,False,False,False,False,True,4,4,4,4,0,30.29773192734459,57.04096573728748
84, رز ,kerman,خیابان هزار و یک شب کوچه 5 ابتدای کوچه سمت راست,32459736,2,08:30:00,13:30:00,خیابان هزار و یک شب کوچه 5 ابتدای کوچه سمت راست,False,True,False,False,False,False,False,True,4,4,4,4,0,30.28581765902334,57.03630566596985
85, باریستا  ,kerman,بلوار حمزه,32457711,2,07:30:00,00:00:00,بلوار حمزه، بین کوچه 24 و 26,False,True,False,False,False,False,True,True,4,4,4,4,0,30.2921544194825,57.03531861305237
86, کیخسرو ,kerman,خیابان زریسف,33127264,1,08:00:00,22:30:00,خیابان زریسف ،خیابان برزو آمیغی ،درب سوم ،سمت راست,False,False,False,False,False,False,True,True,3,4,4,3,0,30.29538749187601,57.08882331848144
87, بی ان دی (هرمزگان) ,bandarabbas,انتهای بلوار دانشگاه,07644873350,2,08:00:00,11:00:00,انتهای بلوار دانشگاه، خیابان پروفسور خشنودی، جنب زمین چمن,False,True,False,False,False,False,False,True,5,5,5,5,0,27.20585728866426,56.3375848531723
88, کنج دنج ,bandarabbas,رسالت شمالی چهارراه پردیس ساختمان ثبت شرکت(ریاضیات خیام),07633740333,1,08:00:00,00:00:00,رسالت شمالی چهارراه پردیس ساختمان ثبت شرکت(ریاضیات خیام),False,False,False,False,False,False,False,True,0,0,0,0,0,27.20478751015614,56.33262138771693
89, ناردین ,bandarabbas,داماهی,07633669610,2,08:30:00,00:00:00,داماهی ، بین گوهران ۱۳ و ۱۵ بعد از قارچ کوچولو,False,False,False,False,False,False,False,True,0,0,0,0,0,27.208936,56.342692
90, سالمونت ,bandarabbas,بلوار ساحلی,07633335153,3,08:00:00,00:00:00,بلوار ساحلی ،  نبش کوچه ساحل ۱۰، جنب مبل کوروش,False,False,False,True,False,False,False,True,2,2,2,3,0,27.1829877774418,56.31291389465332
91, هنر ,bandarabbas,خیابان اتوبوسرانی,,1,08:00:00,00:00:00,خیابان اتوبوسرانی ، فروزان 27,False,True,False,False,False,False,False,True,0,0,0,0,0,27.20426161311666,56.34042332270235
92, راش ,bandarabbas,خواجه عطا بلوار وحدت جنوبی به سمت دریا,,2,09:00:00,23:00:00,خواجه عطا بلوار وحدت جنوبی به سمت دریا  ، بعد از بازار ماهی فروشی،  روبروی کارواش پویا,False,False,False,False,False,False,False,True,1,1,1,2,0,27.183436,56.310795
93, کوکو ,bandarabbas,خيابان اتوبوسرانى جنوبى,,2,08:00:00,23:30:00,خيابان اتوبوسرانى جنوبى ، انتهاى كوچه جنت,False,False,False,False,False,False,False,True,0,0,0,0,0,27.20308533193749,56.34099125862121
94, پیانو ,bandarabbas,خیابان رسالت جنوبی بلوار12فروردین,09133239334,2,11:00:00,00:00:00,خیابان رسالت جنوبی بلوار12فروردین ،به طرف ۹ دی,False,True,False,False,False,False,False,True,0,0,0,0,0,27.19346167004784,56.34425282478332
95, فین ,bandarabbas,سیم بالا,07633334747,2,07:30:00,00:00:00,سیم بالا ، روبروی فرمانداری,False,False,True,False,False,False,False,True,0,0,0,0,0,27.1820429314824,56.2960052490234
96, تراس (مشهد) ,mashhad,مشهد,05131660,2,08:00:00,23:00:00,مشهد، بلوار وکیل آباد، بین امامت 6 و 8,False,True,False,False,False,False,True,True,5,4,5,4,0,36.32147031584075,59.53302383422851
97, مجموعه غذایی تراس ,mashhad,بلوار وکیل آباد,05131660,2,08:00:00,00:00:00,بلوار وکیل آباد ، بلوار امامت ، بین امامت ۶ و ۸,False,False,False,False,False,False,False,True,0,0,0,0,0,36.32147031584075,59.53302919864654
98, پردیسان (هتل پردیسان مشهد) ,mashhad,بزرگراه کلانتری بعد از میدان استقلال هتل پردیسان,513909,2,11:00:00,00:00:00,بزرگراه کلانتری بعد از میدان استقلال هتل پردیسان,False,False,False,False,False,False,True,True,0,0,0,0,0,36.30060307592185,59.53622134723878
99, بوکافه (مشهد) ,mashhad,سه راه فلسطین.دستغیب 10,05137605364,2,09:00:00,23:00:00,سه راه فلسطین.دستغیب 10,False,False,False,False,False,False,False,True,0,0,0,0,0,36.31015411664746,59.56628322601318
100, آرون (مشهد) ,mashhad,كوثر شمالي ١,05138823132,2,08:00:00,00:00:00,"كوثر شمالي ١ ، لاله ١ پلاك ١
( وكيل اباد ١٠ ، لاله ، پلاك ١",False,False,False,False,False,False,False,True,0,0,0,0,0,36.32111589907588,59.5198380947113
101, صندلی ,mashhad,وكيل اباد 15,36013191,2,09:00:00,00:00:00,وكيل اباد 15 ، نبش شهيد قاسمي 1,False,True,False,True,False,False,False,True,0,0,0,0,0,36.3222671711148,59.5217914763841
102, شکر (احمد آباد) ,mashhad,احمد آباد,38420131,2,08:00:00,00:00:00,احمد آباد ، بلوار ملاصدرا ، ملاصدرا 4,False,True,False,False,False,False,False,True,4,4,4,4,0,36.29504023664463,59.57299947738647
103, شکر (سجاد) ,mashhad,بلوار سجاد,37676664,2,09:00:00,00:00:00,بلوار سجاد ، خیابان بهار 2 ، پلاک 8,False,True,False,False,False,False,False,True,3,4,5,3,0,36.31849230046303,59.55378413200378
104, کوک ,mashhad,بلوار خیام,37638358,2,08:00:00,00:00:00,بلوار خیام ، خیام 10 ، خیابان زنبق,False,True,False,True,False,False,False,True,0,0,0,0,0,36.31148119676116,59.55475777387619
105, لئون ,mashhad,بزرگراه کلانتری,09123848002,2,10:00:00,23:45:00,بزرگراه کلانتری ، مجموعه توریستی آبادگران ، ایران برج 1 ، B1,False,True,False,False,False,False,False,True,0,0,0,0,0,36.26853199889231,59.55186367034912
106, رترو (مشهد) ,mashhad,بلوار پیروزی,35098085,2,13:30:00,00:00:00,بلوار پیروزی ، بین پیروزی 79 و 81 ، شماره 79,False,True,False,True,False,False,False,True,0,0,0,0,0,36.3321526046607,59.4655005971642
107, 1860 ,mashhad,هاشمیه 91/5,38814117,2,17:00:00,23:30:00,هاشمیه 91/5 ، خیابان سوم سمت چپ ، قطعه آخر,False,True,False,True,False,False,False,True,4,4,5,4,0,36.30161184870307,59.48548436164856
108, نبات ,mashhad,خیابان سلمان فارسی,38443918,2,08:00:00,00:00:00,خیابان سلمان فارسی ، نرسیده به خیابان فلسطین ، نبش صفا,False,True,False,False,False,False,False,True,5,4,4,3,0,36.30513089225756,59.56786036491394
109, کافه 81 ,mashhad,بلوار سجاد,09155083007,2,09:00:00,00:00:00,بلوار سجاد ، خیابان حامد جنوبی 9 ،  پلاک 81,False,False,False,False,False,False,False,True,1,4,5,3,0,36.315477,59.545909
110, کُ کُ (ارومیه) ,urmia,خیابان دانشکده,04433478632,2,10:00:00,22:00:00,خیابان دانشکده، مرکز خرید دانشکده، طبقه دوم,False,True,False,False,False,False,False,True,0,0,0,0,0,37.52591346948916,45.03868550062179
111, آبشار (ارومیه) ,urmia,خیابان شیخ شلتوت,09143496710,2,10:00:00,23:00:00,خیابان شیخ شلتوت، نرسیده به میدان تره بار، روبروی بانک سپه,True,True,False,False,False,False,False,True,0,0,0,0,0,37.54550614587921,45.10617936421113
112, برنیس ,qazvin,بلوار آیت اله خامنه ای,33991012,2,08:00:00,00:00:00,بلوار آیت اله خامنه ای ، روبروی هتل مرمر ، مجتمع نیایش ، جنب درب ورودی مجمتع,False,True,False,False,False,False,False,True,0,0,0,0,0,36.26607747754687,50.0236165523529
113, بام لند دیاکو ,qazvin,بلوار اسد آبادی,02833575753,2,12:00:00,00:00:00,بلوار اسد آبادی، مجتمع تجاری دیاکو,True,False,True,True,True,True,True,True,5,5,5,4,0,36.26427600442358,49.98764812946319
114, دیو ,qazvin,میدان جانبازان ب سمت نوروزیان انتهای خروجی پل مطهری ب نوروزیان,10,1,12:00:00,00:00:00,میدان جانبازان ب سمت نوروزیان انتهای خروجی پل مطهری ب نوروزیان,False,False,False,False,False,False,False,True,0,0,0,0,0,36.30543458605477,50.0119449198246
115, نوژا ,qazvin,خیابان فردوسی,33348874,2,10:00:00,23:00:00,خیابان فردوسی ، بالاتر از میدان عدل، جنب کوچه شهاب,False,False,False,False,False,False,False,True,4,4,4,4,0,36.27979801886269,50.0081891566515
116, شید ,qazvin,پونک انتهای بلوار نخبگان نرسیده به مصیب مرادی جنب فهیم هشتم,09358559363,2,10:00:00,00:00:00,پونک انتهای بلوار نخبگان نرسیده به مصیب مرادی جنب فهیم هشتم,False,False,True,True,False,False,False,True,0,0,0,0,0,36.31490902229607,50.03502130508423
117, عینک ارثیه ,qazvin,سعدالسلطنه,09365047376,2,09:30:00,22:00:00,سعدالسلطنه ، سراي قيصريه ، حجره ٤٦,False,False,False,False,False,False,False,True,5,5,5,4,0,36.268845,50.00019
118, کاروما ,qazvin,فردوسی شمالی,33368201,2,09:00:00,23:30:00,فردوسی شمالی ، مرکز خرید نارون ، واحد  44,False,False,False,False,False,False,False,True,5,4,4,5,0,36.2856947625423,50.0106722241451
119, نگار السلطنه ,qazvin,خیابان امام,33247634,2,09:00:00,23:00:00,خیابان امام ، کاروانسرای سعدالسلطنه ، بازار وزیر ، حجره ی سی و چهار,False,False,False,False,False,False,False,True,4,4,5,4,0,36.2689268421991,49.9998708299827
120, کافه چی ,ghom,نبش میدان صفاییه,02537840019,2,10:00:00,00:00:00,نبش میدان صفاییه,False,True,False,False,False,False,False,True,5,5,5,5,0,34.6338214386147,50.86849093437195
121, فیروزه ,ghom,سالاریه,02532944404,2,08:30:00,00:00:00,سالاریه،میدان میثم،خیابان یاسمن،پلاک ۳۱۴,False,True,False,True,True,True,False,True,4,4,4,4,0,34.61447107665699,50.84530055522919
122, لمیز ,ghom,کیلومتر 5 اتوبان قم-تهران,22721469,2,09:00:00,00:00:00,کیلومتر 5 اتوبان قم-تهران، گردش سرای مهر و ماه,False,False,False,False,False,False,False,True,5,5,5,5,0,34.74239272977071,50.86744487285614
123, باران ,ghom,ابتداي ٤٥ متري صدوق ميدان مفتح,32615896,2,09:00:00,00:00:00,ابتداي ٤٥ متري صدوق ميدان مفتح,False,False,False,False,False,False,False,True,5,5,5,5,0,34.6277681840779,50.8619400258995
124, بارون ,ghom,خيابان صدوق,32931513,2,07:30:00,00:00:00,خيابان صدوق ،  بلوار بوعلي ، ميدان شهيد دستغيب,False,True,True,False,False,False,False,True,4,4,4,4,0,34.6191335509759,50.8565587003646
125, ژیهات ,ghom,سالاريه,32401378,2,08:30:00,00:00:00,سالاريه ، خيابان ژاله ، پلاک ژاله,False,True,False,False,False,False,True,True,4,4,4,3,0,34.61355939932814,50.84584772586822
126, ژاو ,ghom,٤٥ متري صدوق,32401336,2,09:00:00,00:00:00,٤٥ متري صدوق ، ٢٠ متري كوكب,False,True,False,False,False,False,False,True,0,0,0,0,0,34.60941367977332,50.85599184036255
127, بهمن ,ghom,45 متری صدوق,32910897,2,09:30:00,23:45:00,45 متری صدوق، ابتدای خیابان حافظ، میدان میرقیصری,False,True,False,False,False,False,False,True,0,0,0,0,0,34.62173985512479,50.86015462875366
128, ژاو ,hamedan,خیابانِ‌فرهنگ,08138256201,2,08:00:00,23:00:00,خیابانِ‌فرهنگ، روبروی‌ادارهٔ‌آموزش‌وپرورش,False,False,False,False,False,False,False,True,0,0,0,0,0,34.7835053183827,48.51735234260559
129, مون ,hamedan,شهرک مدنی,09186115088,2,09:00:00,00:00:00,شهرک مدنی،فازدو،سه راه آپارتمان ها،جنب باشگاه سلطان,False,False,False,True,False,True,False,True,4,1,5,5,0,34.7988575,48.5150225
130, صوفی (شیراز) ,shiraz,بلوار ستارخان,07136490000,2,11:00:00,00:00:00,بلوار ستارخان، روبه رو خردمند,True,True,False,False,False,False,False,True,0,0,0,0,0,29.63139603530529,52.49468207359314
131, الماس (شیراز) ,shiraz,معالی اباد,09364045239,2,10:00:00,23:00:00,معالی اباد، مجتمع اوتانا یک، باشگاه الماس,False,True,False,False,False,False,False,True,0,0,0,0,0,29.68027479552527,52.46015736521061
132, شین ,shiraz,پل زرگری به سمت فلکه دانشجو,07136284553,2,09:00:00,00:00:00,پل زرگری به سمت فلکه دانشجو، روبروی ابیوردی ۳،جنب اتوکوروش,False,True,False,True,True,False,False,True,0,0,0,0,0,29.64232061952459,52.47141147514389
133, ساوانا (شیراز) ,shiraz,خیابان قصرالدشت,09120998125,2,08:00:00,00:00:00,خیابان قصرالدشت، حدفاصل ولیعصر و عفیف آباد ، کوچه ۵۹ ، روبروی ۵۹/۴,False,True,False,False,False,False,False,True,0,0,0,0,0,29.63092042025619,52.50603318214416
134, بنان (شیراز) ,shiraz,حدفاصل پارامونت و باسکول نادر,07132354005,2,09:00:00,00:00:00,حدفاصل پارامونت و باسکول نادر، ذوالنوار شرقی، روبروی کوچه ۲، ورودی پارکینگ زیتون,False,True,False,False,False,False,False,True,0,0,0,0,0,29.61886842495461,52.52679884433746
135, اسکوروچی ,shiraz,شیراز,07132279809,2,09:00:00,23:30:00,شیراز، خیابان جهادسازندگی، حدفاصل چهارراه چنچنه و فلکه گاز، نبش کوچه ۳,False,False,False,False,False,False,False,True,4,4,4,4,0,29.63426657007024,52.53693629276211
136, بابا بستنى (نیایش) ,shiraz,بلوار چمران,0716541815,1,12:00:00,00:00:00,بلوار چمران، بلوار نیایش,False,False,False,False,False,False,False,True,0,0,0,0,0,29.66616580212285,52.49142050743103
137, ویتال ,shiraz,قدوسى غربى,0736305030,2,17:00:00,00:00:00,قدوسى غربى،خيابان محلاتى،نبش كوچه ٤,False,True,True,False,False,False,False,True,0,0,0,0,0,29.63549928756072,52.47038125991821
138, خوشا شیراز ,shiraz,بلوار صنایع روبروی ورودی گلدشت حافظ,07136504324,3,12:00:00,00:00:00,بلوار صنایع روبروی ورودی گلدشت حافظ,False,False,False,False,True,True,False,True,0,0,0,0,0,29.73441160297166,52.43906378746033
139, ژولپ ,shiraz,پشت ارگ کریمخان,07132246980,2,08:30:00,23:00:00,پشت ارگ کریمخان,False,False,False,False,True,False,False,True,4,1,3,2,0,29.61505130949088,52.54567623138428
140, رویال ,shiraz,بازار وکیل,09011309503,2,08:00:00,23:00:00,بازار وکیل ،  مجموعه زندیه ، بین حمام و مسجد وکیل,False,False,False,False,True,False,False,True,0,0,0,0,0,29.61481113184514,52.54552870988846
141, پانسیون کتاب ,shiraz,خيابان ٢٢ بهمن(شاهپور سابق),9172525096,2,11:00:00,23:00:00,خيابان ٢٢ بهمن(شاهپور سابق)،روبروي كوچه ٥,False,False,False,False,False,False,False,True,5,5,4,5,0,29.6192146863711,52.547306008637
142, این ,shiraz,معالی آباد,36384254,2,08:30:00,00:00:00,معالی آباد ، نبش خیابان بهاران  ، مجتمع آرین,False,True,False,True,False,False,False,True,0,0,0,0,0,29.6785848393913,52.4557979648387
143, استریت لانژ ,shiraz,معالی آباد,09173047400,2,09:00:00,23:00:00,معالی آباد، پزشکان، مجتمع الماس شهر,False,True,False,False,False,False,False,True,5,3,5,3,0,29.69207447088546,52.46417999267578
144, فردوسی ,shiraz,خیابان فردوسی,32316616,2,09:00:00,23:00:00,خیابان فردوسی ، روبروی هتل آرين ،  كاشی 194,False,True,False,False,False,False,False,True,0,0,0,0,0,29.6242049013925,52.540144761915
145, شهر کاغذی ,shiraz,قصرالدشت,32361033,2,09:00:00,23:00:00,قصرالدشت، حدفاصل سه راه برق و ملاصدرا، كوچه ٢٥ قصرالدشت,False,True,False,True,False,False,False,True,4,4,4,4,0,29.6227136886047,52.5189732996553
146, یوگا ,shiraz,ميدان احسان,36390258,2,09:00:00,23:00:00,ميدان احسان ، بولوار پرستار،  ساختمان هاي مسكوني دراك ، بلوك اركيد,False,True,False,True,False,False,False,True,0,0,0,0,0,29.62179971764936,52.48360956280521
147, چیل ,shiraz,خیابان هدایت غربی کوچه 8,32343972,2,11:00:00,00:00:00,خیابان هدایت غربی کوچه 8,False,True,False,True,False,False,False,True,0,0,0,0,0,29.6248234938512,52.5232467005232
148, کندو ,shiraz,پل معالی آباد بطرف دینکان,36236373,2,17:30:00,11:30:00,پل معالی آباد بطرف دینکان،بلواربهشت،روبروی مجتمع ارکیده,False,True,False,False,False,False,False,True,0,0,0,0,0,29.6895083279749,52.4736364718251
149, خانه هنر ,shiraz,خيابان دانشگاه,36290999,2,09:00:00,23:00:00,خيابان دانشگاه ، پلاک 62,False,False,False,True,False,False,False,True,0,0,0,0,0,29.6372321101567,52.5222218839668
150, بهمن 57 ,shiraz,عفیف آباد,36262444,2,10:00:00,22:00:00,عفیف آباد،مجتمع تجاری حافظ طبقه اول,False,True,False,True,False,False,False,True,0,0,0,0,0,29.62664444686381,52.50564157962799
151, نقاشی ,shiraz,خيابان فردوسي,32231644,2,09:30:00,23:30:00,خيابان فردوسي ،نبش خيابان رودكي،كافه نقاشي,False,True,False,False,False,False,False,True,5,5,5,5,0,29.62322633543465,52.54146516323089
152, حیاط ,shiraz,کوچه ۳۶ قصردشت,9164067312,2,09:00:00,23:00:00,کوچه ۳۶ قصردشت ، روبروی عفیف آباد نبش ۳۶/۳ ، پلاک ۱۹۳,False,True,False,True,False,True,False,True,0,0,0,0,0,29.63039898943602,52.51036996206494
153, گرن ,shiraz,بولوار نيايش,36541894,2,07:00:00,00:00:00,بولوار نيايش ، مجتمع هومهر,False,True,False,True,False,True,False,True,4,4,4,4,0,29.66612618130941,52.49136686325073
154, ماهونی  ,shiraz,حافظیه,32278585,2,08:00:00,00:00:00,حافظیه ،روبروی باغ جهان نما,False,True,False,False,False,False,False,True,0,0,0,0,0,29.628791490814,52.55698735825717
155, پاتوق کتاب ,shiraz,شهرک گلستان,32344614,2,16:00:00,23:00:00,شهرک گلستان ، غدیرشمالی ، نبش گل رز‏,False,True,True,False,False,False,False,True,0,0,0,0,0,29.61944651675191,52.52338499575444
156, معمار ,shiraz,خیابان جهاد سازندگی بالاتر از چهار راه چنچنه,32276799,2,09:00:00,00:00:00,خیابان جهاد سازندگی بالاتر از چهار راه چنچنه,False,True,False,True,False,False,False,True,1,3,1,1,0,29.63670400317458,52.53358179887982
157, هدایت ,shiraz,بيست متری سينما سعدی,32349152,2,08:30:00,00:00:00,بيست متری سينما سعدی ، هدايت غربی، نبش كوچه 4,False,True,False,True,False,False,False,True,2,3,3,2,0,29.6243930345854,52.5238640658452
158, لابی لانژ (شیراز) ,shiraz,معالی اباد,07136238890,2,08:00:00,23:00:00,معالی اباد ، پزشکان هتل الیزه,False,True,True,False,False,False,False,True,0,0,0,0,0,29.67755672130814,52.46019624173641
159, ملو ,tehran,خیابان ولیعصر,02188929415,2,08:00:00,22:00:00,خیابان ولیعصر،ضلع جنوب شرقی میدان ولیعصر جنب ورودی B پاساژ تجارت ایرانیان,False,False,True,False,False,False,False,True,4,2,3,5,0,35.7110300331244,51.40699736773968
160, هنر ,tehran,خیابان انقلاب,02166484885,2,09:30:00,22:30:00,خیابان انقلاب،بین خیابان وصال و قدس،جنب سینما سپیده،کوچه اسکو شماره ۸,False,True,False,True,False,True,False,True,4,3,4,4,0,35.70176862018896,51.39896750450134
161, خامیز ,tehran,زعفرانیه,02126808894,2,08:00:00,00:00:00,زعفرانیه، آصف، انتهای کوچه حامد، نبش باغستان ششم,False,False,True,False,False,False,False,True,0,0,0,0,0,35.80611913097716,51.41420788629239
162, دریا باز ,tehran,ولنجک,02122429032,2,12:00:00,00:00:00,ولنجک ،بلوار دانشجو،خیابان گلریزان، بالاتر از میدان گلریزان,True,True,False,True,True,False,False,True,4,4,4,3,0,35.80878005763831,51.39272063970566
163, بلینسکی ,tehran,کریمخان,02186072171,2,09:00:00,00:00:00,کریمخان،ابتدای خیابان ماهشهر،پلاک ۱۱۸,False,True,True,False,False,False,False,True,5,5,5,5,0,35.71508241361593,51.42038226127624
164, بیت بیسترو ,tehran,خيابان مطهري,02188890341,2,07:00:00,21:00:00,خيابان مطهري،خيابان لارستان،نبش كوچه پور فلاح,False,True,False,True,False,True,False,True,5,5,4,5,0,35.72080537627403,51.41298606991768
165, راک ,tehran,شهرک غرب,02188369196,2,09:00:00,00:00:00,شهرک غرب، بلوار دریا، خیابان گلها، نبش توحید 3،پلاک 10,False,True,False,True,True,False,False,True,4,4,4,4,0,35.76887193392411,51.37266039848327
166, چیمنی (پاسداران) ,tehran,خیابان پاسداران,02122579490,2,11:00:00,00:00:00,خیابان پاسداران ، بین گلستان 8و9,False,False,False,False,False,False,False,True,4,4,3,3,0,35.77536845253725,51.46443486213684
167, شمرون (شهرک غرب) ,tehran,شهرك غرب,02188570359,2,09:00:00,00:00:00,شهرك غرب،خيابان ايران زمين شمالى،رو به روى بيمارستان بهمن،جنب فرهنگسراى ابن سينا,False,False,True,True,False,False,False,True,3,4,4,3,0,35.76676797312544,51.38042271137237
168, بام ری ,tehran,خیابان فداییان اسلام صدمتر مانده به میدان اصلی شهرری,02155967000,2,11:00:00,23:30:00,خیابان فداییان اسلام صدمتر مانده به میدان اصلی شهرری,False,True,True,False,True,False,False,True,4,4,4,4,0,35.59183901502867,51.4373043179512
169, آوانی ,tehran,خیابان یوسف آباد,02188615560,2,12:00:00,23:00:00,خیابان یوسف آباد ، بین خیابان 62 و 64,False,False,True,True,True,False,False,True,5,4,4,4,0,35.745883,51.404758
170, نوشه ,tehran,گیشا,02188267666,2,07:00:00,00:00:00,گیشا، انتهای علیایی غربی، دست راست جوادی،پلاک 55,False,False,True,True,False,True,False,True,4,4,4,4,0,35.73032139579422,51.37373113422654
171, شمرون (بام لند) ,tehran,انتهاى همت غرب ابتداى اتوبان خرازى خروجى درياچه ميدان موج خيابان موج,02140447341,2,08:00:00,00:00:00,انتهاى همت غرب ابتداى اتوبان خرازى خروجى درياچه ميدان موج خيابان موج،بلوار صدف،مجموعه تجارى بام لند,False,True,False,False,True,False,True,True,2,2,4,2,0,35.74389525541517,51.22240465922005
172, ویونا (بازار قائم) ,tehran,تجریش,02122721688,2,09:30:00,22:00:00,تجریش ، بلوار شهرداری،کوچه زعیم ، بازار قائم ، طبقه پنجم ، پلاک 2176,False,True,False,False,True,False,True,True,4,4,4,5,0,35.805766,51.430749
173, دانته ,tehran,خيابان يوسف اباد نبش كوچه ١٢ پلاك ١٢٢,02186046472,3,09:00:00,00:00:00,خيابان يوسف اباد نبش كوچه ١٢ پلاك ١٢٢ ، طبقه ٥,True,True,True,True,False,False,True,True,3,4,4,3,0,35.72531701850833,51.40791214473415
174, آلموند ,tehran,يوسف اباد خيابان ٦٤ بعد از پل كردستان مجتمع asp واحد تجاري ١٠,02188603988,2,09:30:00,23:30:00,يوسف اباد خيابان ٦٤ بعد از پل كردستان مجتمع asp واحد تجاري ١٠,False,True,False,False,False,False,True,True,4,4,4,4,0,35.744645,51.398696
175, پارپیرار ,tehran,تهرانپارس,02177350876,2,10:00:00,00:00:00,تهرانپارس،خیابان ۱۸۲شرقی،نرسیده به ۱۳۱,True,False,True,True,False,True,False,True,4,4,4,4,0,35.73750371138351,51.54358148574829
176, آوا پلاس ,tehran,نياوران,02122728797,2,09:00:00,00:00:00,نياوران،بعد از سه راه ياسر به سمت تجريش، پلاك250,False,True,True,True,True,True,False,True,5,5,4,5,0,35.81216677529292,51.44954055547714
177, ایزار ,tehran,باغ کتاب تهران,0219304444808,2,10:00:00,00:00:00,باغ کتاب تهران، طبقه دوم,False,False,True,False,False,False,False,True,4,4,4,3,0,35.75455730218963,51.43327255232953
178, کاپیتان لانژ ,tehran,خیابان پاسداران,02109028888393,2,12:30:00,00:00:00,خیابان پاسداران، بین نگارستان نهم و دهم,False,True,False,True,False,True,True,True,3,3,4,3,0,35.76202773648719,51.45501494407654
179, قنادی ناتلی  ,tehran,خیابان سهروردی شمالی,02187109107,2,09:00:00,22:00:00,خیابان سهروردی شمالی، بالاتر از خیابان آپادانا، نبش خیابان توپچی، شماره 655,False,True,False,False,False,False,False,True,4,4,4,4,0,35.73675803306446,51.44267544150352
180, بوریتو ,tehran,خیابان سهروردی شمالی,02188522121,3,09:00:00,00:00:00,خیابان سهروردی شمالی، خیابان خرمشهر(آپادانا)، پلاک 172,False,True,False,False,True,False,False,True,3,4,4,3,0,35.7354440982162,51.43326759338379
181, هرما ,tehran,کنارگذر کریمخان(به سمت هفت‌تیر)٫ بین قرنی و ایرانشهر٫ پلاک۱۹۰,02109122369902,2,10:00:00,23:30:00,کنارگذر کریمخان(به سمت هفت‌تیر)٫ بین قرنی و ایرانشهر٫ پلاک۱۹۰,False,False,False,False,True,False,False,True,0,0,0,0,0,35.7151435341253,51.41841537480091
182, لِوی ,tehran,برج آ اس پ,021888616551,2,10:00:00,00:00:00,برج آ اس پ،راهروی طبقه همکف،پلاک66,False,True,False,True,False,False,True,True,0,0,0,0,0,35.7444354640843,51.39799520373344
183, عمارت حور ,tehran,خيابان حافظ,02166760796,2,12:00:00,00:00:00,خيابان حافظ،نرسيده به بازار موبايل ايران،پلاك ١٧٠و١٧٢,True,False,False,True,True,False,False,True,0,0,0,0,0,35.69076068329169,51.41002759337425
184, روشن فکر ,tehran,سعادت آباد,02188699291,2,12:00:00,00:00:00,سعادت آباد،علامه جنوبی،٣٨غربي نبی اکرم،نبش۴۰ غربی،پلاك۱,False,True,False,False,True,False,False,True,0,0,0,0,0,35.77174078276384,51.37988090515137
185, نیکی ,tehran,شهرک غرب,02188370800,3,10:00:00,00:00:00,شهرک غرب،بام پاساژ میلادنور،طبقه6،پلاک29,True,False,False,True,True,False,False,True,0,0,0,0,0,35.75333330395545,51.3627777993679
186, مارون بار ,tehran,خیابان اشرفی‌اصفهانی,02144973474,2,11:00:00,00:00:00,خیابان اشرفی‌اصفهانی، خیابان پیامبر‌شرقی، پلاک ۴۷,False,False,True,False,False,False,False,True,0,0,0,0,0,35.73666223738736,51.32764354348183
187, ماشا ,tehran,بزرگراه شهید چمران,02109029063234,3,10:00:00,04:00:00,بزرگراه شهید چمران،تقاطع یادگار امام،هتل پارسیلن اوین,False,True,False,False,True,False,True,True,0,0,0,0,0,35.78908551062546,51.39079213142395
188, اودسا ,tehran,چهارراه سرسبز,02177228047,2,12:00:00,00:00:00,چهارراه سرسبز ، خیابان آیت شمالی ، پلاک 856,False,False,False,False,True,False,False,True,0,0,0,0,0,35.73652834096379,51.49488598108291
189, دلیت ,tehran,شهرک غرب,02188373032,2,12:30:00,23:00:00,شهرک غرب،بلوارفرحزادی،بلوار نورانی،پلاک52,False,False,False,False,True,False,False,True,0,0,0,0,0,35.77604520182194,51.36259334937046
190, مستقل ,tehran,خردمند شمالی,02188313639,2,12:00:00,23:00:00,خردمند شمالی،کوچه دهم،پلاک ۹,False,False,False,True,True,False,False,True,0,0,0,0,0,35.71826406573852,51.42060756683349
191, رز ایرانی ,tehran,دزاشیب,02109120037231,2,12:00:00,00:00:00,دزاشیب،نجابت جو،نرسیده به نیاوران،پلاک 16,True,False,False,True,False,False,False,True,0,0,0,0,0,35.80717256692227,51.44209206104278
192, عمارت تراس ,tehran,میدان هفت حوض,02109129649818,2,12:00:00,00:00:00,میدان هفت حوض، خ آیت شمالی، مجتمع تجاری امرالد استار، طبقه دوم,True,False,False,False,False,False,True,True,0,0,0,0,0,35.73209112562421,51.4943253993988
193, آلندا ,tehran,خیابان ايرانشهر,02188312958,2,09:00:00,23:00:00,خیابان ايرانشهر، خیابان آذرشهر، پلاک ۲۸,False,False,False,False,False,True,False,True,0,0,0,0,0,35.71300262026565,51.42001211643219
194, نوبو ,tehran,زعفرانيه,02126708017,3,12:00:00,00:00:00,زعفرانيه، انتهاي ماكويي پور شمالي، كوچه مسجد,True,False,False,False,False,False,False,True,0,0,0,0,0,35.81330217431619,51.40664264559746
195, سوییت آنجل ,tehran,شریعتی,02109362619381,2,10:00:00,22:00:00,شریعتی ،دو راهی قلهک ،خیابان بصیری پلاک ۱۹,False,False,False,False,False,False,False,True,0,0,0,0,0,35.76888771205964,51.44132494926452
196, گروسی ,tehran,پاسداران,02122883400,2,12:00:00,23:45:00,پاسداران، تقاطع گیلان و فرخی‌یزدی‌,False,False,False,False,False,False,True,True,0,0,0,0,0,35.76197887431082,51.45989018430869
197, فیشرآباد ,tehran,فیشرآباد(قرنی),02141969444,2,08:30:00,22:00:00,فیشرآباد(قرنی)،نبش خسرو(دهقانی‌نیا),False,False,False,False,True,False,False,True,0,0,0,0,0,35.70839424293599,51.41840686524297
198, روتا لانژ ,tehran,میدان ولیعصر,02188801330,3,10:00:00,00:00:00,میدان ولیعصر، هتل آرامیس، روف روتالانژ,True,False,False,True,True,False,False,True,0,0,0,0,0,35.71459513705824,51.40729442238808
199, روناک گاردن ,tehran,نیاوران,02109104507000,2,11:00:00,22:00:00,نیاوران،خیابان پور ابتهاج،خیابان خداوردی،کوچه آراسته،پلاک19,False,False,False,True,False,False,False,True,0,0,0,0,0,35.81857003935524,51.47593885660171
200, پریسکا ,tehran,خیابان کریمخان,02188311501,2,09:00:00,00:00:00,خیابان کریمخان،خیابان سنائی،پلاک50,False,False,False,False,True,False,False,True,0,0,0,0,0,35.71720570685358,51.41845643520355
201, بین الملل ,tehran,ونک,02188783259,2,09:00:00,23:00:00,ونک ، ابتدای خیابان ملاصدرا ،خیابان پردیس، شماره19,False,False,False,False,False,False,False,True,0,0,0,0,0,35.75888265777998,51.40479862689972
202, اُدت ,tehran,پونک,02144872954,2,10:00:00,00:00:00,پونک، اشرفی اصفهانی جنوب، ورودی آبشناسان غرب، طبقه بالای سرزمین سوخاری,False,False,False,False,False,False,False,True,0,0,0,0,0,35.77087410500048,51.3357867334261
203, کوزی لانژ ,tehran,ملاصدرا,02122803557,2,12:00:00,00:00:00,ملاصدرا، شیخ بهایی جنوبی، برزیل غربی، پلاک ۱۵۴,False,False,False,False,False,False,False,True,0,0,0,0,0,35.75207159385771,51.40156512280752
204, باکارا (ولیعصر) ,tehran,چهارراه ولیعصر,02109373564072,2,08:30:00,00:00:00,چهارراه ولیعصر، ضلع شرقی تئاتر شهر، بین رازی و خارک، بن‌ بست انجمن کتاب، پلاک ۱,False,False,False,False,True,False,False,True,0,0,0,0,0,35.70079142651995,51.40897052354006
205, فیدار ,tehran,آیت اله کاشانی( به سمت صادقیه),02144973007,2,08:00:00,22:00:00,"آیت اله کاشانی( به سمت صادقیه)،بعد از خروجی ستاری جنوب ، بین ابراهیمی و حسن آباد ،
پلاک ۴۳۰",False,False,False,False,False,False,False,True,0,0,0,0,0,35.73009868525945,51.31312221180634
206, باراز ,tehran,بلوار مرزداران غربی (بين یادگار امام و اشرفي اصفهاني),02144235719,2,11:00:00,00:00:00,بلوار مرزداران غربی (بين یادگار امام و اشرفي اصفهاني)، بعد از بانك كشاورزي,False,False,False,False,True,False,False,True,0,0,0,0,0,35.73629142290885,51.33781708380548
207, سسنیک ,tehran,خیابان‌ولیعصر,02188943444,2,11:00:00,00:00:00,خیابان‌ولیعصر، نرسیده به میدان ولیعصر، نبش خیابان فیروزه,False,False,False,False,False,False,False,True,0,0,0,0,0,35.70928725666172,51.40662501553577
208, بناک ,tehran,امجدیه,02188495311,2,08:30:00,23:30:00,امجدیه ، بهارشمالی ، بالاتر از ورزنده ، کوچه مخبرالملک ، پلاک ۴,False,False,False,False,False,False,False,True,0,0,0,0,0,35.71028247354331,51.42963051795959
209, بیکری گراس ,tehran,هروی,02122332125,2,09:00:00,00:00:00,هروی،خیابان ساقدوش،انتهای کوچه عدالت,False,False,False,True,True,False,False,True,0,0,0,0,0,35.76256481767979,51.46983432792568
210, کلاویه ,tehran,شهرك غرب,02109388538731,2,11:00:00,23:00:00,شهرك غرب،بلوار فرحزادى،خيابان عباسى انارى ،پاساژ آريا -واحد ٨ ‏,False,False,False,False,False,False,False,True,0,0,0,0,0,35.77247307616652,51.36056900024414
211, دربار ,tehran,خیابان سپهبد قرنی,02188802576,2,12:00:00,00:00:00,خیابان سپهبد قرنی،کوچه امانی، پلاک ۵,True,False,False,True,True,False,False,True,0,0,0,0,0,35.71474485922267,51.41686052083969
212, قهوه روتین ,tehran,‎پاسداران,02126711852,2,10:00:00,22:00:00,‎پاسداران، نبش نیستان دوم,False,False,False,False,False,False,False,True,0,0,0,0,0,35.76285914828025,51.45498409867287
213, لوک ,tehran,سعادت آباد,02122074794,2,08:00:00,23:00:00,"سعادت آباد ، بالاتر از میدان کاج ، خیابان
هشتم(یعقوبی) ، خیابان مجد ، پلاک ۲۲",False,False,False,False,True,False,False,True,0,0,0,0,0,35.78373461968758,51.37729735679335
214, جیلیز ویلیز (پل رومی) ,tehran,خیابان شریعتی,02135075,2,11:30:00,23:30:00,خیابان شریعتی، بعد از پل صدر، نرسیده به پل رومی، پلاک 1786,True,False,False,False,False,False,True,True,0,0,0,0,0,35.79047579730118,51.43520951271057
215, کنج ,tehran,بلوار کشاورز,02188961320,2,11:00:00,22:00:00,بلوار کشاورز، خیابان کبکانیان، نبش کوچه ی ۵، پلاک ۱۲,False,False,False,False,True,False,False,True,0,0,0,0,0,35.71271405826187,51.4030310511589
216, لانژ 12 ,tehran,پاسداران,02122555100,2,12:00:00,23:30:00,پاسداران ، پایدارفرد ، بین بوستان چهارم و پنجم ، پلاک ۱۲,True,False,False,True,True,False,False,True,0,0,0,0,0,35.76439492149789,51.45913013593877
217, مکتب قهوه ,tehran,نیاوران,0219100019973,2,12:00:00,00:00:00,"نیاوران، سه راه یاسر، انتهای صادقی قمی،
ابتدای خلیلی ،مجتمع پارسیان جماران، دهکده ایرانی",False,False,False,False,False,False,True,True,0,0,0,0,0,35.82035346524666,51.45737528800964
218, کاربن ,tehran,خیابان کریم خان,02188823246,2,08:00:00,23:00:00,خیابان کریم خان، خیابان ایرانشهر،کوچه جمیله شیخی ، پلاک ۱۳,False,True,False,True,True,True,False,True,0,0,0,0,0,35.71364344196023,51.42093479633331
219, برافتو ,tehran,خیابان ولیعصر,02122038600,2,11:00:00,23:00:00,خیابان ولیعصر، روبروی‌پارک ملت، کوچه انصاری،مجاور پارکینگ برج ملت،پلاک ۸۷,False,False,True,False,True,False,False,True,0,0,0,0,0,35.77571255867939,51.4134644473057
220, لیدو پلاس ,tehran,ضلع غربی میدان هفت‌حوض,02177942336,2,08:00:00,23:00:00,ضلع غربی میدان هفت‌حوض، کوچه عظیمی‌نیا، پلاک ۲۴,False,False,False,False,True,False,False,True,0,0,0,0,0,35.72942116580867,51.49255245923996
221, وانتد ,tehran,خیابان بهار شمالی٫خیابان ورکش٫پلاک۱۷/۱,02188495477,2,11:00:00,23:00:00,خیابان بهار شمالی٫خیابان ورکش٫پلاک۱۷/۱,False,False,False,False,True,False,False,True,0,0,0,0,0,35.71199482653147,51.42698988318443
222, ژینرپلاس ,tehran,خیابان ولیعصر,02122017817,2,12:00:00,23:30:00,خیابان ولیعصر، نرسیده به پارک وی، خیابان قریشی (تورج)، پلاک 26,False,False,False,False,False,False,True,True,0,0,0,0,0,35.78883951800537,51.41811434686173
223, لوترا ,tehran,ولیعصر نرسیده به پارک وی,02122043063,2,06:00:00,22:00:00,"ولیعصر نرسیده به پارک وی،نبش کوچه خاکزاد
پلاک ۲۸۴۱",False,False,False,False,False,False,False,True,0,0,0,0,0,35.7894358042395,51.41606390476227
224, پنجاه و دو هرتز ,tehran,پاسداران,02191300656,2,09:00:00,00:00:00,پاسداران، خیابان اسلامی، بین گلستان ۱ و ۲,False,False,False,False,False,False,False,True,0,0,0,0,0,35.76845027569429,51.46577328443527
225, باور ,tehran,خيابان كريمخان خيابان عضدى ( آبان )جنوبي خيابان شهيد جعفر شهرى تماشاخانه سپند,02109375738278,2,15:00:00,00:00:00,خيابان كريمخان خيابان عضدى ( آبان )جنوبي خيابان شهيد جعفر شهرى تماشاخانه سپند,False,False,False,True,True,False,False,True,0,0,0,0,0,35.71145961808717,51.41366332769394
226, دیورسو ,tehran,میدان هروی,02122976568,2,12:00:00,23:00:00,میدان هروی، مجتمع تجاری الماس هروی، طبقه دوم,False,False,False,False,True,False,True,True,0,0,0,0,0,35.76709877799346,51.47701308131218
227, اینترنی (شهرک غرب) ,tehran,شهرک غرب,02109101115155,3,12:00:00,00:00:00,شهرک غرب، پاساژ گلستان، نبش ورودی مهستان,False,True,False,False,False,False,True,True,0,0,0,0,0,35.75371749408666,51.37409403920174
228, دییر فکتوری ,tehran,خیابان انقلاب,02188816378,2,07:30:00,23:00:00,خیابان انقلاب،جنب خیابان آذرنوش،پلاک549,False,False,False,False,False,False,False,True,0,0,0,0,0,35.70176559689762,51.42222745206556
229, بلک باکس ,tehran,کریمخان,02188815018,2,12:00:00,23:30:00,کریمخان،ایرانشهر،کوچه استاد سمندریان،پلاک ۳۰,False,False,False,False,False,False,False,True,0,0,0,0,0,35.70957560872757,51.42255135240631
230, دلین ,tehran,سهروردی شمالی,02186044356,2,11:00:00,00:00:00,سهروردی شمالی،بین خیابان بهشتی و مطهری،بین کوچه آزادی و باغ،پلاک ۲۶۴,True,False,False,True,False,False,False,True,0,0,0,0,0,35.72540653177637,51.43508210778236
231, لامینر لانژ ,tehran,شهرك اكباتان,02109034445023,2,10:00:00,23:00:00,شهرك اكباتان،فاز٢،مجتمع تجارى مگامال،تراس طبقه دوم,False,False,False,False,True,False,True,True,0,0,0,0,0,35.70475695777737,51.30820691585541
232, ریوا ,tehran,شهرک غرب,02186091051,2,11:00:00,23:00:00,شهرک غرب،مجتمع تجاری پلاتین،طبقه اول,False,False,False,True,True,False,False,True,0,0,0,0,0,35.75187815341266,51.36498928070068
233, ام ,tehran,فرشته,02126372792,2,11:00:00,23:00:00,فرشته، خیابان آقابزرگی، پلاک 21,False,False,False,False,False,False,False,True,0,0,0,0,0,35.79318232632282,51.42416283488273
234, لوکادونات (نیاوران) ,tehran,نیاوران,02191091009,2,07:30:00,23:00:00,نیاوران،مژده. میری،عرفانی،پلاک ۱۷,False,False,False,False,False,False,False,True,0,0,0,0,0,35.81521404518023,51.43566280603409
235, لوکادونات (فرشته) ,tehran,فرشته. بوسنی هرزگوین. مجتمع تجاری مینیاتور. واحد ١,02191091009,2,10:00:00,21:00:00,فرشته. بوسنی هرزگوین. مجتمع تجاری مینیاتور. واحد ١,False,False,False,False,False,False,True,True,0,0,0,0,0,35.79406562693585,51.42277747392654
236, لوکادونات (سعادت آباد) ,tehran,‎سعادت آباد,02191091009,2,08:00:00,23:00:00,‎سعادت آباد، پایین تر از ميدان فرهنگ، پلاك٣٧,False,False,True,False,False,False,False,True,0,0,0,0,0,35.78167567746407,51.38512328267097
237, کوه نور ,tehran,میدان کوهسار,02109125260681,2,12:00:00,00:00:00,میدان کوهسار،جاده سولقان،روبه روی سفره خانه ماه عسل,True,False,False,False,True,True,True,True,0,0,0,0,0,35.77838666952004,51.26958847045898
238, والهالا ,tehran,‌شهرک غرب,02188368920,2,12:00:00,00:00:00,‌شهرک غرب،خیابان سپهر،گلبرگ سوم،انتهای کوچه رضایی غربی,False,False,True,True,False,False,False,True,0,0,0,0,0,35.7672946486484,51.34681731462478
239, قهوه خان ,tehran,نیاوران,02126117154,2,07:30:00,22:30:00,نیاوران،خیابان پور ابتهاج،نبش خیابان محمدی,False,False,True,False,False,False,False,True,0,0,0,0,0,35.81362299772668,51.47809669375419
240, شقایق ,tehran,امیر آباد,02109127230048,2,11:00:00,22:00:00,امیر آباد ، نبش کوچه ۱۴، مجتمع تجاری احسان، طبقه یک,True,False,False,False,False,False,False,True,0,0,0,0,0,35.72750450949989,51.3881716132164
241, لوندر (فرشته) ,tehran,فرشته,02122394251,2,07:30:00,22:00:00,فرشته، خیابان بوسنی هرزگوین، خیابان دکتر حسابی، پلاک ۱۳/۱,False,False,True,False,False,False,False,True,0,0,0,0,0,35.79631517084929,51.42342656850815
242, فیلم کلاسیک ,tehran,تقاطع سمیه و‌ نجات‌اللهی,02188851374,2,10:00:00,00:00:00,تقاطع سمیه و‌ نجات‌اللهی،پلاک ۲۵۴,False,False,False,False,True,False,False,True,4,4,4,4,0,35.70504119250867,51.41571588814258
243, رامان ,tehran,یادگارامام جنوب,02122114976,2,11:30:00,23:30:00,یادگارامام جنوب،فرحزاد شمالی،رو به روی نمایندگی سایپا پلاک ۲۵,False,False,False,False,False,False,False,True,0,0,0,0,0,35.78504233609161,51.34582221508026
244, روچیک ,tehran,ونك,02188191401,2,13:00:00,00:00:00,ونك،خيابان خدامى،روبروى هتل هما,True,False,False,False,False,True,True,True,0,0,0,0,0,35.76193054725452,51.40585629008947
245, خونه البرز ,tehran,خیابان انقلاب,02109123104263,2,09:00:00,23:30:00,خیابان انقلاب،زیر پل کالج،کوچه البرز ۲ انتهای البرز ۱ پلاک ۳۲,False,False,False,True,True,False,False,True,0,0,0,0,0,35.70199405626744,51.40985459089279
246, هفت (هفت تیر) ,tehran,میدان هفت‌تیر,02188811224,2,08:00:00,00:00:00,میدان هفت‌تیر، خیابان کریمخان زند، خردمندجنوبی,False,False,True,False,False,False,False,True,0,0,0,0,0,35.71483197017071,51.42192453145981
247, شبرو ,tehran,ایران‌مال,02109127772350,2,11:00:00,00:00:00,ایران‌مال، طبقه جی ۲، جنب کتابخانه جندی‌شاپور، شبرو بازار,False,False,False,False,False,False,True,True,0,0,0,0,0,35.75426166956853,51.19263052940369
248, برانچ تو ,tehran,میرعماد,02122144905,2,08:00:00,23:00:00,میرعماد،کوچه دوم،پلاک22,False,False,True,False,False,False,False,True,0,0,0,0,0,35.72507315470737,51.42646859289645
249, برسین ,tehran,شهرک غرب,02188577119,2,07:30:00,23:30:00,شهرک غرب،میدان صنعت،ابتدای خیابان ایران زمین،پلاک7,False,False,False,False,False,False,False,True,0,0,0,0,0,35.75513535199775,51.37044875384157
250, آدیشه لانژ ,tehran,سعادت آباد,02122381697,3,12:00:00,23:30:00,سعادت آباد، بلوار کوهستان، مرکز تجاری اپال، طبقه دهم,False,False,True,False,True,False,True,True,0,0,0,0,0,35.77715937665268,51.35119065642357
251, گلزار ,tehran,میدان هفت تیر,02188865370,2,10:00:00,00:00:00,میدان هفت تیر،خیابان بهار شیراز،خیابان سلیمان خاطر کوچه گلزار,False,False,False,False,False,False,False,True,0,0,0,0,0,35.72150656337072,51.43093943595886
252, چای (هفت تیر) ,tehran,کریمخان‌زند,02188832266,2,13:00:00,23:00:00,کریمخان‌زند، خردمند جنوبی، بن‌بست وحدتی‌منش،پلاک ۲,False,False,False,False,True,False,False,True,2,2,4,2,0,35.71242876197063,51.42206937074661
253, آولی ,tehran,اندرزگو,02122231006,2,09:00:00,22:30:00,اندرزگو، نبش علوی پلاک ۲,False,False,False,False,False,False,False,True,0,0,0,0,0,35.80209835036778,51.45817423909433
254, لوف باکس ,tehran,سعادت آباد,02122386812,2,09:00:00,22:00:00,سعادت آباد، بلوار کوهستان، مرکز تجاری اُپال,False,False,False,False,False,False,True,True,0,0,0,0,0,35.77715937665268,51.35118931531906
255, مری ,tehran,خیابان انقلاب,02109366239991,2,10:00:00,00:00:00,خیابان انقلاب، بعد از دروازه دولت، خیابان رامسر، پلاک ۷,False,False,False,False,False,False,False,True,0,0,0,0,0,35.70246834120152,51.42310604453087
256, بلوکازا (شمس آباد) ,tehran,شمس آباد,02122301030,2,11:30:00,23:30:00,شمس آباد،ضلع جنوب شرقی میدان ملت،پلاک745,False,True,False,False,False,False,False,True,0,0,0,0,0,35.7544074887592,51.47674912158614
257, بلوکازا (قیطریه) ,tehran,روبروی پارک قیطریه,02122245404,2,11:00:00,23:30:00,روبروی پارک قیطریه،خیابان حداد،پلاک4,False,False,False,False,False,False,False,True,0,0,0,0,0,35.79556048382436,51.44857813364151
258, یانکی ,tehran,خیابان قرنی,02109372293610,2,17:00:00,05:00:00,خیابان قرنی،نبش کریمخان،هتل بلور،طبقه اول,False,False,False,False,False,False,False,True,0,0,0,0,0,35.71473614812262,51.41780868172645
259, سیتو ,tehran,تهرانپارس,02177880888,2,12:00:00,23:00:00,تهرانپارس،حدفاصل فلکه اول و سه راه,False,False,False,False,False,False,False,True,0,0,0,0,0,35.72548492114374,51.52478456497192
260, حیات هزار افسان ,tehran,خیابان فلسطین,02166981278,2,10:00:00,22:00:00,خیابان فلسطین، خیابان بزرگمهر، خیابان برادران شهید مظفر(صبا)، پلاک ۱۲۵,False,False,False,False,True,False,False,True,0,0,0,0,0,35.70370277567202,51.40507355332374
261, فلسفه ,tehran,خیابان نوفل لوشاتو,02166981267,2,12:00:00,23:00:00,خیابان نوفل لوشاتو، نرسیده به ولیعصر، کاشی 87,False,False,False,False,False,False,False,True,0,0,0,0,0,35.69710293042187,51.40519559383392
262, پرولوگ ,tehran,پاسداران,02122549556,2,09:00:00,22:00:00,پاسداران،بوستان دوم،پلاک ۹,False,False,False,False,True,False,False,True,0,0,0,0,0,35.76345803551168,51.45618879390623
263, پروژه (د) ,tehran,روبرو پارک نیاوران,02122821044,2,08:30:00,22:30:00,روبرو پارک نیاوران، داخل فرهنگسرای نیاوران,False,False,False,False,True,False,False,True,0,0,0,0,0,35.8081267574747,51.46919616860277
264, لوی لانژ ,tehran,شمال کاخ نیاوران,02126118451,2,12:00:00,00:00:00,شمال کاخ نیاوران،ابتدای کاشانک،پلاک۳۸۶,False,True,False,False,True,False,False,True,0,0,0,0,0,35.81324235963866,51.47506445646286
265, گرویتی ,tehran,"سعادت آباد,بین میدان کاج و‌میدان فرهنگ",02122066170,2,12:00:00,00:00:00,"سعادت آباد,بین میدان کاج و‌میدان فرهنگ،روبروی بیمارستان پارسیان",True,False,False,True,True,True,False,True,4,3,4,4,0,35.78352520865928,51.3827320933342
266, اشکبوس ,tehran,خیابان فرمانیه غربی(لواسانی غربی),02122722745,2,08:30:00,00:00:00,خیابان فرمانیه غربی(لواسانی غربی)،جنب شیرینی فروشی فرمانیه، پلاک ۱۲۱,True,False,False,True,False,False,False,True,5,5,5,5,0,35.80548729198912,51.45404288455366
267, پازل ,tehran,خیابان فاطمی,02188997114,2,08:30:00,23:30:00,خیابان فاطمی،روبروی هتل لاله,False,False,False,False,True,False,False,True,0,0,0,0,0,35.71594807076676,51.39307469129562
268, رولکس لانژ ,tehran,آجودانیه,02109395408127,3,12:00:00,00:00:00,آجودانیه،مجتمع  تجاری عرش,True,True,False,True,True,True,True,True,0,0,0,0,0,35.8162754507693,51.48400962352753
269, کلاتو ,tehran,پاسداران نبش بهستان ۷ پلاک۴۱۸,02122785249,2,12:00:00,00:00:00,پاسداران نبش بهستان ۷ پلاک۴۱۸,True,False,False,True,False,True,True,True,2,3,3,2,0,35.77598042360311,51.46475892739411
270, چک موز ,tehran,نیاوران بعد از سه راه یاسر نرسیده به مژده پلاک ۳۲۰,02109102003134,2,12:00:00,00:00:00,نیاوران بعد از سه راه یاسر نرسیده به مژده پلاک ۳۲۰,False,False,False,False,False,False,False,True,0,0,0,0,0,35.80960354241591,51.44401578919364
271, آدورا ,tehran,اندرزگو,02122680036,3,12:00:00,00:00:00,اندرزگو، خیابان سلیمی شمالی,False,False,False,False,False,False,False,True,0,0,0,0,0,35.8030350736877,51.44732091796271
272, کارگاه سفالگری کوره ,tehran,شهرک غرب,02186090174,2,08:30:00,23:00:00,شهرک غرب،مجتمع تجاری پلاتین،طبقه منفی یک،جنب هایپرمی,False,False,False,False,False,False,False,True,0,0,0,0,0,35.75233636000636,51.36522799730301
273, کارزین (باشگاه انقلاب) ,tehran,مجموعه فرهنگی ورزشی انقلاب,02126216377,2,08:00:00,23:00:00,مجموعه فرهنگی ورزشی انقلاب،کلوپ صخره‌نوردی,False,False,False,False,False,False,False,True,0,0,0,0,0,35.78253625880269,51.40026569366455
274, کارزین (نیاوران) ,tehran,مجموعه فرهنگی تاریخی کاخ نیاوران,02109046318440,2,08:00:00,22:30:00,مجموعه فرهنگی تاریخی کاخ نیاوران,False,False,False,False,False,False,False,True,4,4,4,4,0,35.81137938176286,51.47176265716553
275, کارزین (شهرک غرب) ,tehran,شهرک غرب,02109046313850,2,08:00:00,23:00:00,شهرک غرب ،ایران زمین،باغ راه فدک,False,False,False,False,False,False,False,True,0,0,0,0,0,35.7511663,51.384161717
276, کلاور ,tehran,خردمند شمالی,02186071182,2,12:00:00,23:00:00,خردمند شمالی،نبش کوچه سهیلی،پلاک ۱۱۱/۱,False,False,False,True,False,False,False,True,5,5,5,5,0,35.71934200941194,51.42121709883213
277, گیم ریپابلیک ,tehran,سعادت آباد,02122367630,2,10:00:00,20:00:00,سعادت آباد ، بالاتر از میدان کاج ، خیابان دوم (عبقری) ، داخل پارک شقایق ، ساختمان آجری,False,False,False,False,True,False,False,True,0,0,0,0,0,35.78637409623204,51.37723619874589
278, بلیتون ,tehran,نیاوران,02126470396,3,17:00:00,23:00:00,نیاوران ، خیابان پور ابتهاج ، نبش خداوردی ، مجتمع لیدو ، طبقه R1,False,True,False,False,False,False,True,True,1,2,4,1,0,35.81372087579724,51.47568136453628
279, رابو ,tehran,شهرک غرب,02188082597,2,12:00:00,23:00:00,شهرک غرب، بلوار دریا، بیست و یک متری گلها، نبش توحید پنجم,False,False,True,False,True,False,False,True,0,0,0,0,0,35.76911399519591,51.37260330698558
280, واریو ,tehran,تهرانپارس,02177732149,2,12:00:00,00:00:00,تهرانپارس،خیابان دماوند، نبش خیابان مهرنامی، پلاک ۲۸۷/۱,False,False,False,False,False,True,False,True,0,0,0,0,0,35.72301670779065,51.51697933673858
281, وایب ,tehran,دیباجی جنوبی,02122546562,2,10:00:00,19:00:00,دیباجی جنوبی، کوچه بختیاری، پلاک ۲۱,False,False,True,False,True,False,False,True,0,0,0,0,0,35.79108565915896,51.46314269405219
282, لوئیجی (گیشا) ,tehran,گیشا کوی نصر,02188269208,2,10:00:00,00:00:00,گیشا کوی نصر، بین کوچه 1 و 3 پلاک 26,False,False,True,False,False,False,False,True,0,0,0,0,0,35.72725399493348,51.37920548878797
283, لوئیجی (تیراژه) ,tehran,بزرگراه اشرفی اصفهانی,02188087838,2,09:00:00,00:00:00,بزرگراه اشرفی اصفهانی،مرکز خرید تیراژه،طبقه دوم,False,False,True,False,False,False,True,True,5,5,5,4,0,35.74823225026914,51.33087903015193
284, لوئیجی (شهرک غرب) ,tehran,شهرک غرب,02188087838,2,09:00:00,00:00:00,شهرک غرب،بلوار دادمان،بین کوچه معراج و میلاد،پلاک ١٤٧,False,False,True,False,False,False,False,True,0,0,0,0,0,35.76459104690659,51.35157823562622
285, سرآشپز ,tehran,چیتگر,02146086959,2,12:00:00,23:30:00,چیتگر، بلوار کوهک، مرکز خرید طوبی، آسانسور جنوبی، طبقه 5,True,False,True,False,False,True,True,True,0,0,0,0,0,35.72983758745087,51.24807715415954
286, لوندر (جردن) ,tehran,جردن,02122414672,2,07:30:00,22:00:00,جردن،نبش دستگردی،پلاک۹۹,False,False,True,False,False,False,False,True,0,0,0,0,0,35.76808465539387,51.42001211643219
287, تیسا لانژ ,tehran,جردن,02122664161,2,09:00:00,23:30:00,جردن،نبش آرش غربی،ساختمان اکسین،طبقه نهم,False,False,False,False,False,False,True,True,0,0,0,0,0,35.77072992388271,51.42062433063984
288, دیوکس ,tehran,خیابان ولیعصر,02166412840,2,08:00:00,23:30:00,خیابان ولیعصر،بالاتر از چهار راه ولیعصر،خیابان بزرگمهر،نبش فریمان پلاک ۵۸,False,False,False,False,False,False,False,True,0,0,0,0,0,35.7033945772372,51.40112936496734
289, لنیما ,tehran,آیت الله کاشانی,02146120170,2,07:30:00,00:00:00,آیت الله کاشانی،سه راه جنت آباد,False,False,False,False,False,False,True,True,4,4,4,3,0,35.74087822668462,51.30288541316986
290, لیتل ایتالی ,tehran,شیخ بهایی جنوبی,02109126381730,2,13:00:00,00:00:00,شیخ بهایی جنوبی،بلوار علیخانی،مجتمع ونک پارک،برج دماوند,False,False,False,False,True,False,False,True,0,0,0,0,0,35.74979714395088,51.39739841222763
291, لالچه ,tehran,کامرانیه شمالی,02126253796,2,16:00:00,23:30:00,کامرانیه شمالی ، نبش شریفی ، ساختمان یاس کامرانیه ، پلاک ۸ ، طبقه۹,False,False,False,False,False,False,True,True,0,0,0,0,0,35.80323309825366,51.46157562732696
292, کایسر ,tehran,نياوران,02122290380,2,10:00:00,23:00:00,نياوران،اميرسليمانى،روبروی فرهنگسرای امام خمینی,True,False,False,True,True,False,True,True,0,0,0,0,0,35.81400580904917,51.45645394921303
293, ماژول ,tehran,ستارخان,02166550997,2,09:30:00,00:00:00,ستارخان،روبروى حبيب الهي،خيابان تاكستان،پلاک ٧/١,False,False,False,False,True,False,False,True,0,0,0,0,0,35.71823793358963,51.3648310303688
294, شاه کوه ,tehran,شمیرانات,02109334441293,2,12:00:00,00:00:00,شمیرانات،اوشان میدان امام علی پانصد متر به سمت تهران,True,False,False,False,False,False,False,True,0,0,0,0,0,35.88740727316543,51.52811050415039
295, آنوبانی ,tehran,سهروردي شمالی,02188750003,2,12:00:00,00:00:00,سهروردي شمالی، پايين‌تر از آپادانا(خرمشهر)، نبش كوچه فيروزه، پلاک ٥٤٤,False,False,False,False,True,False,False,True,0,0,0,0,0,35.73519641929578,51.44114457499209
296, ابتدا ,tehran,ولیعصر,02109354381886,2,12:00:00,23:00:00,ولیعصر، بالاتر از میدان ولیعصر، کوچه فرخی ، پلاک ۳۵,False,False,False,True,True,False,False,True,0,0,0,0,0,35.71395401810486,51.40788340818764
297, خانه اطلسی ,tehran,میدان فلسطین,02166975237,2,12:00:00,23:30:00,میدان فلسطین،خیابان طالقانی غرب،خیابان سرپرست بن بست پارس,False,False,False,False,True,True,False,True,0,0,0,0,0,35.70528839966938,51.40243291854858
298, مُ ,tehran,خواجه عبدالله,02122861934,2,07:30:00,23:00:00,خواجه عبدالله،روبروی کوچه13،مجتمع اختر,False,False,True,False,False,False,False,True,0,0,0,0,0,35.74391774079155,51.45799891211352
299, بوتیک هتل نظامیه ,tehran,ميدان بهارستان,02175904,2,09:00:00,23:00:00,ميدان بهارستان،خيابان نظاميه،كوچه اصالت،بنبست پنجم,False,False,False,False,True,False,False,True,0,0,0,0,0,35.68947648839609,51.43027022480965
300, دیوا ,tehran,لواسان,02126547133,2,08:00:00,23:30:00,لواسان، بلوار امام خمینی، نبش بوستان اول,False,False,False,False,True,False,False,True,0,0,0,0,0,35.81773377280714,51.61172434687614
301, توشات ,tehran,بلوارکشاورز,02188967962,2,10:00:00,23:00:00,بلوارکشاورز، خیابان قدس، نرسیده‌ به‌ ایتالیا، کوچه‌ اَمیرشاهی، پلاک 7,False,False,False,True,True,False,False,True,0,0,0,0,0,35.70698724752696,51.3963308930397
302, عمارت شمسا ,tehran,میدان انقلاب,02109309909890,2,10:00:00,22:00:00,میدان انقلاب،کارگرشمالی،کوچه ادوارد براون، پلاک 17,False,False,False,False,True,False,False,True,0,0,0,0,0,35.70292519853338,51.3920259475708
303, کتاب جایی دیگر ,tehran,شریعتی,02122603364,2,09:00:00,22:00:00,شریعتی،جنب مترو قلهک،پلاک ۱۵۰۰,False,False,False,False,True,False,False,True,0,0,0,0,0,35.77275476231787,51.43790109615565
304, جاست فرش ,tehran,میدان آرژانتین,02188887222,2,06:30:00,22:30:00,میدان آرژانتین، ابتدای عماد مغینیه، مجتمع تجاری بهاران,False,True,True,False,False,False,False,True,0,0,0,0,0,35.73743817076628,51.41481472673556
305, تهرون کندوان ,tehran,میدان فردوسی,02166737146,2,08:00:00,23:00:00,میدان فردوسی ،خیابان انقلاب ،روبروی استاد نجات الهی (ویلا) کوچه کندوان نبش مهرانی پلاک ۱۹,False,False,False,True,True,False,False,True,4,4,5,4,0,35.70058316442784,51.41596801578998
306, میتو ,tehran,بلوار میرداماد,02126705268,2,12:00:00,23:00:00,بلوار میرداماد،میدان مادر،خیابان شاه نظری،پاساژ محسنی،طبقه دوم,True,False,True,True,True,False,True,True,5,4,4,4,0,35.75828845247592,51.4422033727169
307, شربت خانه ,tehran,بازار بزرگ ایران مال,02109100333537,2,09:00:00,23:00:00,بازار بزرگ ایران مال،طبقه G2,False,False,False,False,False,False,True,True,0,0,0,0,0,35.75386816335608,51.19101610424609
308, بورکا ,tehran,یوسف آباد,02188028851,2,08:30:00,23:30:00,یوسف آباد،جهان آرا ، بین کوچه ۱۶ و ۱۸,False,False,False,False,False,False,False,True,0,0,0,0,0,35.72852983174415,51.39820335406629
309, وانیا ,tehran,خیابان‌شریعتی‌,02188430913,2,09:00:00,23:00:00,خیابان‌شریعتی‌،خیابان‌ملک‌،پلاک‌۲۵,False,False,False,False,True,False,False,True,0,0,0,0,0,35.71868163453833,51.43643327057361
310, کارنو ,tehran,سعادت آباد؛خیابان سرو غربی؛خیابان بخشایش خیابان نوزده شمالی؛برج عرفان؛طبقه همکف,02172487,2,11:30:00,00:00:00,سعادت آباد؛خیابان سرو غربی؛خیابان بخشایش خیابان نوزده شمالی؛برج عرفان؛طبقه همکف,False,False,True,False,True,False,False,True,0,0,0,0,0,35.7751573689088,51.36468887329101
311, اینترنی (ولنجک) ,tehran,ولنجک‌,02109905776910,2,12:00:00,00:00:00,ولنجک‌، خیابان چهاردهم‌، پاساژ توچال‌، طبقه اول,True,False,False,True,True,False,True,True,3,3,4,2,0,35.80628506149055,51.4013198018074
312, سم بی سم ,tehran,نیاوران,02126854627,2,08:30:00,23:00:00,نیاوران،بعد از سه راه یاسر به سمت تجریش،عمارت سین هشتم،پلاک۳۱۱,False,False,False,False,True,False,False,True,0,0,0,0,0,35.81176220390186,51.44803047180176
313, سرای ارغوان ,tehran,خیابان پیروزی,02177401340,2,10:30:00,23:00:00,خیابان پیروزی، خیابان اول نیروی هوایی، پلاک3/2,False,False,False,True,False,False,False,True,0,0,0,0,0,35.69354246323728,51.48011200621715
314, سین (کالج) ,tehran,چهارراه کالج,02188934319,2,07:00:00,11:30:00,چهارراه کالج،تقاطع خیابان حافظ و انقلاب،پلاک717,False,False,True,True,False,False,False,True,4,4,4,4,0,35.70120066022924,51.41274848811932
315, لوتوس ,tehran,خیابان باهنر,02126126906,2,12:00:00,00:00:00,خیابان باهنر، روبروی جماران، طبقه 1-,False,False,True,False,False,False,False,True,0,0,0,0,0,35.81196886934786,51.45896770974895
316, پگاه ,tehran,خیابان انقلاب,02109107898308,2,09:00:00,00:00:00,خیابان انقلاب،خیابان خارک،بن بست داوری پلاک ۳,False,False,False,False,False,False,False,True,0,0,0,0,0,35.69950387793855,51.40986867249012
317, داج ,tehran,اشرفی اصفهانی شمال.بعد از پل حکیم.مجتمع تجاری هامون.پلاک51,02144285411,2,08:00:00,23:00:00,اشرفی اصفهانی شمال.بعد از پل حکیم.مجتمع تجاری هامون.پلاک51,False,False,False,False,False,False,False,True,0,0,0,0,0,35.74449641903152,51.33287519216537
318, نان استاپ ,tehran,ونک,02188047538,2,09:00:00,00:00:00,ونک، میدان شیخ بهایی، مرکز خرید سئول، پلاک ۱,False,False,False,True,True,False,False,True,4,4,4,3,0,35.76547085655349,51.39528349041939
319, خانه نفیسا ,tehran,شهرک غرب,02126767504,2,10:00:00,22:00:00,شهرک غرب،بلوار فرحزادی،نبش خیابان امام صادق،پلاک2,False,False,False,True,False,False,False,True,0,0,0,0,0,35.77456714734337,51.35272393976594
320, واحه ,tehran,کریمخان,02188314971,2,08:00:00,23:30:00,کریمخان،خیابان ایرانشهر،کوچه نوشهر،پلاک۳,False,False,False,True,False,False,False,True,0,0,0,0,0,35.71193221331825,51.42177432775497
321, کلینیک ,tehran,چهارراه سرسبز,02177800716,2,08:00:00,00:00:00,چهارراه سرسبز،آیت شمالی،نبش زمردشرقی،پلاک 901,False,False,True,False,True,False,False,True,5,2,1,4,0,35.73834408792226,51.49539291858673
322, خانه پهلوان رزاز ,tehran,خیابان  امیرکبیر,02136833892,2,08:00:00,23:00:00,خیابان  امیرکبیر، کوچه جاویدی، پلاک۳۸,False,False,False,False,True,False,True,True,0,0,0,0,0,35.68058785522275,51.43306776881218
323, پرا ,tehran,خیابان فرشته,02126353205,2,09:00:00,22:30:00,خیابان فرشته، بوتیک مال ملل,False,False,True,False,True,False,False,True,0,0,0,0,0,35.79136891855534,51.42079934477806
324, اُشو ,tehran,میدان تجریش ابتدای خیابان ولیعصر جنب بانک کشاورزی,02109351138068,2,10:00:00,00:00:00,میدان تجریش ابتدای خیابان ولیعصر جنب بانک کشاورزی,False,False,False,False,False,False,False,True,0,0,0,0,0,35.80646982657941,51.42371287744299
325, طهرون (ایرانشهر) ,tehran,ایرانشهر,02188315233,2,08:00:00,00:00:00,ایرانشهر، نبش خیابان یگانه,False,False,False,True,False,False,False,True,0,0,0,0,0,35.71393581174379,51.41918867826462
326, حوض کاشی ,tehran,خیابان ایرانشهر,02188491389,2,09:00:00,00:00:00,خیابان ایرانشهر، خیابان بهشهر، پلاک ۹,False,False,False,True,True,False,False,True,0,0,0,0,0,35.71114600495848,51.42126202583313
327, سینان ,tehran,گیشا,02188230930,2,09:30:00,23:30:00,گیشا ، انتهای خیابان پیروزی شرقی ، ضلع شمالی بوستان گفتگو ، مجموعه پذیرایی گفتگو,False,False,False,False,True,False,False,True,1,1,1,1,0,35.73747540839233,51.38201996684074
328, رد (بال تی) ,tehran,شهرک غرب,0219017554083,2,11:00:00,23:00:00,شهرک غرب، بلوار دادمان، خیابان درختی، انتهای بلوار سپهر، کنارگذر یادگار، پلاک ۲۰۸/۱,False,False,False,False,False,False,False,True,0,0,0,0,0,35.76610635926195,51.34730815887451
329, د وان (سعادت آباد) ,tehran,سعادت آباد,02188581309,2,13:00:00,00:00:00,سعادت آباد، پایین تر از میدان کاج، کوچه حق طلب غربی، پلاک130 طبقه دوم,False,False,True,False,False,False,False,True,0,0,0,0,0,35.77485582039433,51.37766965031828
330, لانتی ,tehran,"‎نياوران, ميدان نياوران پلاك ١٢",02122288140,2,12:00:00,00:00:00,"‎نياوران, ميدان نياوران پلاك ١٢",False,False,True,False,False,False,False,True,0,0,0,0,0,35.81125988232096,51.47008903742932
331, دیبا (هتل کوروش) ,tehran,خیابان میرداماد,02122903993,2,08:00:00,00:00:00,خیابان میرداماد،خیابان حصاری،نبش کوچه سوم،هتل کوروش,False,False,True,False,False,False,False,True,0,0,0,0,0,35.75789448973632,51.43963918089866
332, دوبار (پارک پرنس) ,tehran,ميدان ونک,02188611766,2,08:00:00,22:00:00,ميدان ونک،‌ خیابان ملاصدرا،‌ خروجی خیابان ملاصدرا به سمت بزرگراه كردستان,False,False,False,False,False,False,False,True,0,0,0,0,0,35.75834504364847,51.4026153087616
333, دوبار(برج آفتاب) ,tehran,ولیعصر,02188032720,2,08:00:00,22:00:00,ولیعصر، خیابان خدامی، خیابان آفتاب، کوچه ماهتاب، حیاط تجاری برج آفتاب,False,False,True,False,False,False,False,True,0,0,0,0,0,35.76694643381725,51.3992840051651
334, آلسو ,tehran,خیابان حافظ,02188895505,2,08:00:00,23:00:00,خیابان حافظ،روبروی مدرسه البرز،نبش بن بست حیات,False,False,False,True,False,False,False,True,0,0,0,0,0,35.6931524934329,51.4101801628565
335, حوالی دلبر ,tehran,خیابان ولیعصر,02122712270,2,12:00:00,00:00:00,خیابان ولیعصر، کوچه کیارستمی، بن بست دلبر، پلاک ۹,False,False,False,True,False,False,False,True,1,1,4,1,0,35.80303622845923,51.42246097326279
336, سربن ,tehran,پاسداران,02122560556,2,06:30:00,00:00:00,پاسداران، نبش گلستان دوم، (فلاح زاده),False,False,True,False,True,False,False,True,0,0,0,0,0,35.77064178595471,51.46039545536041
337, هشت بهشت ,tehran,ستارخان,02144201855,2,11:00:00,00:00:00,ستارخان، فلکه اول صادقیه، پاساژ پردیس، طبقه دوم,False,False,True,True,True,True,False,True,0,0,0,0,0,35.72148260987606,51.34047523140907
338, بال (ایران مال) ,tehran,ایران مال,02191070873,2,08:30:00,23:00:00,ایران مال،طبقه اول,False,False,False,False,True,False,True,True,3,3,4,3,0,35.75286421943905,51.19246959686279
339, بال (جردن) ,tehran,جردن,02191070635,2,08:00:00,23:30:00,جردن، نبش اسفندیار، ساختمان اکسین، طبقه دوم، فروشگاه جین وست,False,False,True,False,False,False,False,True,0,0,0,0,0,35.77090184696738,51.42067462205887
340, پت ,tehran,شهرك غرب,02188578403,2,10:00:00,21:00:00,شهرك غرب،بلواردادمان،محوطه باز بيمارستان دامپزشكي پايتخت,False,False,False,False,True,False,False,True,0,0,0,0,0,35.76473849867646,51.35232657194137
341, ماتسو لانژ ,tehran,الهیه,02122054643,2,08:00:00,00:00:00,الهیه، مریم شرقی، پلاک ۶۷,False,False,True,True,True,False,False,True,0,0,0,0,0,35.78556508286638,51.42740428447723
342, لامور ,tehran,شهرك غرب,02126359045,2,10:30:00,00:00:00,"شهرك غرب ، روبروى اريكه ايرانيان
خيابان حافظى پلاك ٥٠",False,False,True,False,False,False,True,True,0,0,0,0,0,35.77155145172313,51.35736912488937
343, رومرون ,tehran,جردن,02188887001,2,12:00:00,00:00:00,جردن، بلوار آرش غربی(کنار گذر)٫ پلاک۲۴,False,False,True,False,False,False,True,True,0,0,0,0,0,35.77016409844799,51.42218336462974
344, پستو (سعادت آباد) ,tehran,سعادت آباد,02140227221,2,09:00:00,22:30:00,سعادت آباد،میدان کاج،ابتدای سرو شرقی،مجتمع تجاری مارکیز طبقه R,False,False,False,False,True,False,True,True,4,4,5,4,0,35.78216417547333,51.37672126293182
345, پایپار ,tehran,غرب به شرق شیخ فضل الله نوری,02144675059,2,10:00:00,00:00:00,غرب به شرق شیخ فضل الله نوری،بعد از ستاری،خروجی شهرک آپادانا،شمال شرقی میدان برادران محمدی,True,False,False,True,True,True,True,True,0,0,0,0,0,35.71165671459563,51.33358061313629
346, برد گیم عمارت فردوس ,tehran,باغ فردوس,,2,04:00:00,23:30:00,باغ فردوس، خیابان عارفی نسب،کوچه دلبر پلاک ۴,False,False,True,False,False,False,False,True,0,0,0,0,0,35.80256526172258,51.42116278409958
347, گالری ریشه29 ,tehran,خیابان الهیه,02109912900031,2,08:00:00,22:30:00,خیابان الهیه، خیابان آقا‌بزرگی، پلاک۳۱,False,False,False,True,True,False,False,True,0,0,0,0,0,35.78928946866501,51.42375256090283
348, رزت ,tehran,سعادت آباد,02122062233,2,09:30:00,23:00:00,سعادت آباد ، علامه شمالی ، هجدهم غربی ، پلاک ۵۵,False,True,True,False,True,False,False,True,0,0,0,0,0,35.77911998972696,51.37684464454651
349, چای کنار ,tehran,فاطمی,02188011081,2,08:00:00,23:00:00,فاطمی، خیابانِ کاج، نبشِ کوچه‌ شش,False,False,False,True,True,False,False,True,1,1,1,2,0,35.72090119102393,51.40075117349624
350, گارنت ,tehran,اندرزگو,02149927,2,12:00:00,00:00:00,اندرزگو، حدفاصل کاوه و قيطريه، نبش خيابان مهر محمدی جنوبی، برج ديانا، طبقات١٠و١١,False,False,True,False,False,False,False,True,0,0,0,0,0,35.7965990787802,51.44482120871544
351, باران ,tehran,خیابان نیاوران,02122694453,2,10:00:00,00:00:00,خیابان نیاوران، خیابان مقدسی( مژده)،خیابان لاریجانی،نبش ظهیرالدوله,False,False,True,False,True,False,False,True,0,0,0,0,0,35.81241972800554,51.43328503209199
352, سنترال ,tehran,سهروردي جنوبي.خيابان برادران نوبخت . جنب اتو آرمه .پلاك ١٧,02188317114,2,08:30:00,23:00:00,سهروردي جنوبي.خيابان برادران نوبخت . جنب اتو آرمه .پلاك ١٧,False,False,True,True,True,False,False,True,0,0,0,0,0,35.72142163731169,51.43330380320549
353, لیار ,tehran,نیاوران,,2,10:00:00,19:00:00,نیاوران، جماران، خیابان امیدوار، کوچه هفتم، پلاک 5,False,False,False,False,False,False,False,True,0,0,0,0,0,35.81403952245789,51.46189749240875
354, سرامیک موزه ,tehran,شمال کاخ نیاوران,02122809095,2,10:00:00,19:00:00,"شمال کاخ نیاوران، اول کاشانک، انتهای خیابان جهانشاهی، خیابان احمد جبلی، پلاک ۲۳
‌",False,False,False,True,False,False,False,True,0,0,0,0,0,35.81560609264721,51.47079169750213
355, تئاتر ,tehran,خیابان جمهوری,02109126031037,2,10:30:00,22:30:00,خیابان جمهوری،خیابان رازی،کوچه پرتویی,False,False,False,False,False,False,False,True,0,0,0,0,0,35.6988651207786,51.40611290931702
356, گرین بین ,tehran,خیابان انقلاب بعد از میدان فردوسی,02188342126,2,09:00:00,23:00:00,خیابان انقلاب بعد از میدان فردوسی،حد فاصل رامسر و موسوی کوچه اذرنوش,False,False,False,False,False,False,False,True,0,0,0,0,0,35.70183994791968,51.42247026650052
357, پانتون ,tehran,خیابان ونک,02188209035,2,12:00:00,23:30:00,خیابان ونک،خیابان کار و تجارت،پلاک ۳۵,False,False,False,False,False,False,False,True,0,0,0,0,0,35.75986863700966,51.40518888831138
358, ذهن ,tehran,ولیعصر,02166469069,2,07:00:00,23:30:00,ولیعصر، روبه‌روی تئاتر شهر،کوچه پشن،پلاک۱۲,False,False,False,False,False,True,False,True,0,0,0,0,0,35.69973422133679,51.40422999858856
359, لورنزو ,tehran,ولنجک,02122434867,2,12:00:00,00:00:00,ولنجک ، خیابان امیر آبادی ، نبش گلستان سوم,True,False,False,True,True,False,False,True,2,2,4,2,0,35.80940216303937,51.39685928821564
360, دایمند ,tehran,خیابان نجات اللهی (ویلا),02188890196,2,08:00:00,00:00:00,خیابان نجات اللهی (ویلا) ، خیابان فلاح پور، شماره۳۳,False,False,True,False,True,False,False,True,0,0,0,0,0,35.70348714579687,51.41622751951218
361, هتریک ,tehran,یوسف آباد,02188334818,2,12:00:00,00:00:00,"یوسف آباد ، میدان سلماس ، تقاطع فتحی شقاقی و
بیستون پلاک 32",False,False,True,False,False,False,False,True,0,0,0,0,0,35.72384090575608,51.40504404902458
362, فکرکده (اُپال) ,tehran,سعادت آباد,02122386782,2,10:30:00,23:00:00,سعادت آباد،بلوار کوهستان،مجتمع تجاری اُپال،طبقه4,False,False,False,False,False,False,False,True,0,0,0,0,0,35.7770592774627,51.35170966386795
363, میستری باکس ,tehran,حکیمیه,02109375250154,2,12:00:00,00:00:00,حکیمیه،بلوار بهار،نبش زهدی،پلاک14، طبقه2,False,False,False,False,False,False,False,True,0,0,0,0,0,35.74617810407876,51.57179161906242
364, پل آرت ,tehran,فلسطين شمالي,02188963222,2,12:00:00,00:00:00,فلسطين شمالي،خيابان فيروز دهقان پلاك ٣,False,False,False,True,True,False,False,True,0,0,0,0,0,35.71393592357713,51.40439840764618
365, مون لایت لانژ ,tehran,حکیمیه,,2,12:00:00,00:00:00,حکیمیه،بلوار بهار، خیابان بهشت، بهار ۱، پلاک ۳۶,False,False,True,False,False,False,False,True,0,0,0,0,0,35.7417664423201,51.59195142457314
366, عرش ,tehran,شریعتی,02109354963429,2,09:00:00,22:30:00,شریعتی،تقاطع طالقانی،ابتدای خواجه نصیر,False,False,False,False,False,False,False,True,0,0,0,0,0,35.70683914428246,51.43445983529091
367, رویال رز ,tehran,نياوران,02109912714132,2,09:00:00,00:00:00,نياوران، خیابان محمودی ۳ ، پلاک ۷,False,False,False,True,True,False,False,True,0,0,0,0,0,35.81456914735483,51.44317835569382
368, گالری راوی ,tehran,اقدسیه,02126454881,2,09:00:00,23:30:00,اقدسیه،خیابان‌فیروزبخش،خیابان‌باستان،بعداز تقاطع اول،کوچه دستان ،پلاک۹,False,False,True,True,True,False,False,True,0,0,0,0,0,35.80536491671174,51.47944718599319
369, شار لانژ ,tehran,میدان آرژانتین,02188878510,2,16:00:00,00:00:00,میدان آرژانتین، انتهای خیابان الوند، خیابان اسفراین، نبش اهورا مزدا، طبقه آخر هتل اسکان الوند,False,False,False,False,True,False,True,True,0,0,0,0,0,35.74394564584963,51.41437277197838
370, باغ بارمان ,tehran,خیابان بزرگمهر,02166485800,2,08:00:00,00:00:00,خیابان بزرگمهر، بین سرپرست و فریمان، پلاک ۵۵,False,False,False,True,True,False,False,True,0,0,0,0,0,35.70366357028355,51.4018052816391
371, مایا ,tehran,میدان انقلاب,02188963232,2,08:00:00,23:30:00,میدان انقلاب،خیابان کارگرشمالی،نرسیده به بلوارکشاورزپلاک1555,False,False,False,True,False,False,False,True,0,0,0,0,0,35.70704387516535,51.39043003320694
372, شون برون ,tehran,ايران مال,02147673515,2,11:00:00,00:00:00,ايران مال ، جنب آبنماى موزيكال,False,False,False,False,False,False,True,True,2,2,2,1,0,35.75310583640304,51.19199752807617
373, آموره ,tehran,خیابان فردوسي,02166749574,2,09:00:00,23:00:00,خیابان فردوسي، نرسیده به میدان فردوسی، کوچه ضرابي پلاک4,False,False,False,True,False,False,False,True,0,0,0,0,0,35.70052272041425,51.41902171075344
374, اُبژه ,tehran,بزرگراه کردستان,02188042079,2,09:00:00,23:00:00,بزرگراه کردستان،خیابان زاینده رود غربی، پلاک ۱ (مجتمع پارک پرنس)، طبقه همکف، واحد۱۴,False,False,True,False,False,False,False,True,0,0,0,0,0,35.75828845247592,51.4020574092865
375, پنسو ,tehran,بلوار کشاورز,02186126182,2,08:00:00,23:00:00,بلوار کشاورز، نبش خیابان 16 آذر,False,False,False,False,False,False,False,True,0,0,0,0,0,35.70743843431351,51.39141887856078
376, توسکافه ,tehran,اندرزگو,02122242450,2,08:30:00,00:00:00,اندرزگو،سلیمی جنوبی،نبش نعمتی،پلاک ۷۰,False,False,True,False,False,False,False,True,0,0,0,0,0,35.80012429265502,51.45242650245837
377, خانه پاپریکا ,tehran,خیابان انقلاب,02188808871,2,09:00:00,22:00:00,"خیابان انقلاب، خیابان نجات‌اللهی(ویلا)
کوچه محمدی، نبش کوچه افشار، پلاک ۹",False,False,False,False,True,False,False,True,4,4,5,4,0,35.7044411402207,51.41672238707542
378, مارژولن ,tehran,ديباجي جنوبي,02126316300,2,08:30:00,22:30:00,ديباجي جنوبي، نبش كوچه رحيمي پلاك ٣,False,False,False,False,True,False,False,True,0,0,0,0,0,35.78342887859551,51.45976727349896
379, دل پیانو ,tehran,پل  پارک وی,02122381091,2,12:00:00,00:00:00,پل  پارک وی،چمران جنوب خروجی هتل اوین،خیابان شهید سوری،نرسیده به درب ورودی آتی ساز،کوچه بهزاد،پلاک20,False,False,True,False,False,False,False,True,0,0,0,0,0,35.7852343548173,51.38853404670954
380, نوول ,tehran,ابتداى لشگرى,02109214197883,2,07:30:00,21:00:00,ابتداى لشگرى،بين بيمه ٢ و ٣،كارخانه نوآورى آزادى,False,False,False,False,False,False,True,True,0,0,0,0,0,35.70040401041638,51.31940245628357
381, ریون ,tehran,سعادت آباد,02122112837,2,11:00:00,00:00:00,سعادت آباد،میدان بهرود،خیابان عابدی،نبش کوچه سی ششم پلاک ۱۷,False,False,False,False,True,False,False,True,0,0,0,0,0,35.79451815152497,51.3583293557167
382, ماهد ,tehran,شهرک غرب بلوار درختی خ حافظی نرسیده به یادگار امام پلاک١۴۵,02122383766,2,12:00:00,00:00:00,شهرک غرب بلوار درختی خ حافظی نرسیده به یادگار امام پلاک١۴۵,False,False,False,True,False,True,False,True,0,0,0,0,0,35.7701008996259,51.34835171482828
383, بلوما ,tehran,خیابان ولیعصر,02122425052,2,08:00:00,00:00:00,خیابان ولیعصر، خیابان زعفرانیه، موزه تماشاگه زمان,False,False,False,False,True,False,False,True,4,5,3,3,0,35.8053812314283,51.41904920339584
384, دم ,tehran,خیابان نلسون ماندلا,02126208426,2,08:00:00,23:30:00,خیابان نلسون ماندلا،کوچه عاطفی شرقی، پلاک۱۸,False,True,False,False,False,False,False,True,0,0,0,0,0,35.77171902059818,51.42349228262901
385, ویونا (سهروردی) ,tehran,خیابان سهروردی شمالی,02188524461,2,09:00:00,23:00:00,خیابان سهروردی شمالی،نبش خیاابان توپچی,False,False,False,False,False,False,False,True,0,0,0,0,0,35.73704106507348,51.44287526607513
386, عمارت دیباچه ,tehran,بلوار کشاورز,02109309045190,2,09:00:00,00:00:00,بلوار کشاورز،خیابان نادری تقاطع ایتالیا,False,False,True,True,True,False,False,True,3,3,3,3,0,35.70745070023469,51.39959991286006
387, مورالانژ ,tehran,بلوار فردوس شرق,02144000050,2,12:00:00,00:00:00,بلوار فردوس شرق، پلاک 290,False,False,False,False,False,False,False,True,4,5,4,4,0,35.7232170420303,51.3176429271698
388, مانستر ,tehran,میدان تجریش,,2,07:00:00,00:00:00,میدان تجریش، جنب شمرون کباب,False,False,False,False,False,False,False,True,0,0,0,0,0,35.80690608206566,51.42985260630562
389, کتاب من ,tehran,اتوبان صدرشرق,02122557274,2,09:30:00,21:30:00,اتوبان صدرشرق، خروجی منظریه خیابان‌منظریه طبقه فوقانی شهرکتاب منظریه,False,False,False,False,True,False,False,True,0,0,0,0,0,35.78997755964559,51.45730555057525
390, زی (ارتش) ,tehran,بزرگراه ارتش,02122491360,2,12:00:00,00:00:00,بزرگراه ارتش،برج های آتی ساز،برج نرگس،واحد ۶,False,False,True,False,True,False,True,True,0,0,0,0,0,35.79684763335809,51.52519293129444
391, هاگ ,tehran,نیاوران,021261212820,2,10:00:00,23:00:00,نیاوران، خیابان امیدوار، نبش کوچه پانزدهم,False,False,False,True,True,False,False,True,0,0,0,0,0,35.81662888698124,51.46267265081405
392, یارد ,tehran,مجتمع آ.اس.پ,02188614998,2,09:00:00,23:00:00,مجتمع آ.اس.پ، واحد تجاری40,False,False,True,False,False,False,False,True,0,0,0,0,0,35.74430211889613,51.39813147914535
393, نشین ,tehran,خیابان انقلاب,02166479180,2,10:00:00,22:00:00,خیابان انقلاب،خیابان دانشگاه،خیابان وحید نظری،پلاک٦٨,False,False,True,True,False,False,False,True,0,0,0,0,0,35.69914937651489,51.39711409807205
394, گریفین ,tehran,خیابان کریمخان زند,02188816512,2,07:30:00,23:00:00,خیابان کریمخان زند، خیابان خردمند جنوبی، پلاک ۷۱,False,False,False,False,False,False,False,True,0,0,0,0,0,35.71514774655915,51.42190977931022
395, کارشو ,tehran,ایران مال,,2,09:00:00,21:00:00,ایران مال،طبقه G1,False,False,False,False,False,False,True,True,0,0,0,0,0,35.75453491188495,51.19274672868744
396, لایت ,tehran,خیابون سی‌تیر,,2,08:00:00,21:00:00,خیابون سی‌تیر، جنب موزه آبگینه، پلاک ۵۱,False,False,False,False,True,False,False,True,0,0,0,0,0,35.6931710798015,51.41439288854599
397, آوانا ,tehran,نازی آباد,02155357800,2,11:00:00,23:00:00,نازی آباد، بازار دوم، خیابان نیکنام شمالی،پلاک46,False,False,True,False,True,False,False,True,0,0,0,0,0,35.63924270411944,51.40175968408584
398, روم رون ,tehran,جردن,02188887001,2,12:00:00,00:00:00,جردن، بلوار آرش غربی٫ پلاک۲۴,False,False,False,True,True,False,True,True,0,0,0,0,0,35.77016627470737,51.42218470573425
399, زهیرا لانژ ,tehran,تهرانپارس,02177727065,2,11:00:00,00:00:00,تهرانپارس،پايين تر از فلكه اول،خيابان شهيد حسيني(بهار)،پلاك ٧١,False,False,False,False,True,False,True,True,0,0,0,0,0,35.72558181900517,51.51807233691215
400, روبی ,tehran,میدان نیاوران,02191301725,2,12:00:00,00:00:00,میدان نیاوران،خیابان باهنر،پلاک ۹۹,True,False,True,False,True,False,False,True,5,3,3,4,0,35.81175894122098,51.46506518125534
401, ترند ,tehran,دریاچه چیتگر,02140447210,3,08:00:00,00:00:00,دریاچه چیتگر، بام لند، بلوک c,False,False,False,False,True,False,True,True,5,5,4,4,0,35.74279837089897,51.22211873531341
402, ایمپرسو ,tehran,بالاتر از میدان نیاوران,02122822755,2,07:00:00,22:00:00,بالاتر از میدان نیاوران، خیابان جهانشاهی پلاک15,False,False,False,False,True,False,False,True,0,0,0,0,0,35.8136904248549,51.47166341543197
403, نیکی لانژ ,tehran,"اندرزگو, سلیمانی غربی, خیابان واعظی, روبروی خیابان طوبایی",02109202193061,2,12:00:00,23:30:00,"اندرزگو, سلیمانی غربی, خیابان واعظی, روبروی خیابان طوبایی",False,False,True,False,True,False,False,True,0,0,0,0,0,35.79944517253026,51.43970422446728
404, اینجا ,tehran,کریمخان,02188815025,2,09:00:00,22:00:00,کریمخان،خیابان میرزای شیرازی،شماره‌ ۹۳,False,False,False,False,False,False,False,True,4,4,2,4,0,35.71941822709944,51.41584530472755
405, آبتین ,tehran,میدان امام حسین,02109127438417,2,11:00:00,23:00:00,میدان امام حسین،نبشِ چهارراه صفا,False,False,False,False,False,False,False,True,1,3,3,3,0,35.70331458614808,51.45313230562085
406, هومان ,tehran,میرداماد,02122276206,2,09:00:00,23:00:00,میرداماد، خیابان سنجابی،میدان مینا ،پلاک ۳،مجموعه شهرکتاب مینا,False,False,False,False,True,False,False,True,0,0,0,0,0,35.76266435493539,51.4418064057827
407, اِس ,tehran,نارمک,02177955977,2,09:00:00,00:00:00,نارمک،ضلع شرقی میدان نبوت،نبش کوچه فاطمه الزهرا،پلاک۳۳,False,False,False,False,False,False,False,True,0,0,0,0,0,35.72967357519356,51.49401129469723
408, جریان ,tehran,خیابان فرشته,02109373333816,2,09:00:00,00:00:00,خیابان فرشته،خیابان بوسنی هرزوگوین، خیابان دکتر حسابی، باغ موزه هنر ایرانی,False,False,False,False,True,False,False,True,0,0,0,0,0,35.79928473234962,51.42412662506103
409, باوان ,tehran,خیابان مطهری,,2,12:00:00,21:00:00,خیابان مطهری، خیابان لارستان، خیابان عبده، پلاک ۷,False,False,False,False,True,False,False,True,0,0,0,0,0,35.71986675774921,51.41241947726784
410, لوتوس ,tehran,آجودانیه,02126150421,2,11:00:00,23:00:00,آجودانیه،مجتمع تجاری عرش آجودانیه،طبقه دوم پلاک 154,False,False,True,False,False,False,True,True,0,0,0,0,0,35.81607915705508,51.48362673819065
411, صفر هشت ,tehran,فرمانیه,02122283828,2,08:30:00,23:00:00,فرمانیه،دیباجی شمالی،پلاک ۷۲,False,False,False,False,False,False,False,True,0,0,0,0,0,35.79914876584116,51.46689981222153
412, لینک (اندرزگو) ,tehran,خيابان اندرزگو,02122670306,2,11:00:00,23:30:00,خيابان اندرزگو، خيابان سليمي جنوبي، خيابان نعمتي، پلاك ٣٤,False,False,False,False,False,False,False,True,5,5,3,5,0,35.79960670011368,51.45153343677521
413, الوا  ,tehran,سید خندان,,2,10:00:00,22:00:00,سید خندان، خیابان جلفا، فرهنگسرای ارسباران، کوچه عقابف پلاک یک,False,False,False,False,False,False,False,True,0,0,0,0,0,35.74452829215309,51.44333502223835
414, تلما (ولیعصر) ,tehran,چهارراه ولیعصر,02109199673742,2,09:00:00,00:00:00,چهارراه ولیعصر، خیابان خارک، کوچه داوری، پلاک ٣,False,False,False,False,False,False,False,True,0,0,0,0,0,35.69959046099608,51.4097660779953
415, بیکری روستار ,tehran,اقدسیه,02126455478,2,09:00:00,23:00:00,اقدسیه،نبش خیابان فیرزو بخش،جنب سفارت چین،مجتمع تجاری آوا سنتر،طبقه منفی ۲,False,False,False,False,False,False,False,True,0,0,0,0,0,35.80477269023174,51.47680319845676
416, سیتی تراس ,tehran,شهران,02144341947,2,11:00:00,00:00:00,شهران، بلوار کوهسار، پارک جنگلی کوهسار,False,False,False,False,False,False,True,True,3,3,3,4,0,35.77736392677951,51.2833696603775
417, مومنتو ,tehran,باملند,,2,12:00:00,23:00:00,باملند، ورودی A بلوک A، طبقه 2,False,True,False,False,False,False,True,True,0,0,0,0,0,35.74445070282549,51.22124701738357
418, ژانوی ,tehran,خيابان شريعتى بالاتر از پل صدر نبش كوچه داد (حافظى) پاساژ الماس طبقه همكف,02140229014,2,09:00:00,00:00:00,خيابان شريعتى بالاتر از پل صدر نبش كوچه داد (حافظى) پاساژ الماس طبقه همكف,False,False,False,False,False,False,False,True,0,0,0,0,0,35.78769574357321,51.43592432141304
419, سی تی پلاس ,tehran,شهرک غرب,02109361298909,2,09:30:00,00:00:00,شهرک غرب، خیابان ایران زمین، خیابان گلستان جنوبی، جنب بانک ایران زمین، پلاک 9,False,False,True,False,False,False,False,True,0,0,0,0,0,35.75588764373675,51.3768245279789
420, سعدآباد ,tehran,کاخ موزه سعد آباد,02122715050,2,09:00:00,21:00:00,کاخ موزه سعد آباد،درب زعفرانیه بالاتر از کاخ ملت,False,True,False,False,False,True,False,True,0,0,0,0,0,35.81457676000724,51.42514050006866
421, کایا ,tehran,شهرک غرب,02186175382,3,12:00:00,00:00:00,شهرک غرب، روبه روی میلاد نور، مجتمع ستین سنتر,False,False,True,False,False,False,True,True,0,0,0,0,0,35.75437376925557,51.36315800249576
422, اکنون ,tehran,اوین,0219121279460,2,09:00:00,20:00:00,اوین، اعرابی، نرسیده به سرهنگ عشقی، پلاک ۱۲,False,False,False,False,False,False,False,True,0,0,0,0,0,35.79472483257132,51.39079213142395
423, کارول (اندرزگو) ,tehran,بلوار کاوه,02122215739,2,09:00:00,23:00:00,بلوار کاوه، ابتدای بلوار اندرزگو، پلاک ۱۳۸,False,False,False,False,False,False,False,True,0,0,0,0,0,35.79596490755971,51.44355654716492
424, ژابیز لانژ ,tehran,خیابان ولیعصر,02188856149,3,10:00:00,00:00:00,خیابان ولیعصر، بالاتر از پارک ساعی، نبش خیابان مردوخی,True,True,False,False,True,False,False,True,3,2,3,3,0,35.73953266037861,51.40944008466768
425, همنشین ,tehran,میدان رسالت,02177224574,2,09:00:00,00:00:00,میدان رسالت، خیابان هنگام، سه راه طاهرخانی، نبش کوچه بهار,False,False,False,False,False,False,False,True,0,0,0,0,0,35.74177509439865,51.4940324404051
426, ماهور (شهرک غرب) ,tehran,شهرک غرب,02188071090,2,11:00:00,00:00:00,شهرک غرب، بلوار دادمان، ابتدای خیابان درختی، مرکز خرید سپهر، طبقه اول,False,False,False,False,False,False,True,True,0,0,0,0,0,35.7655377804512,51.35559350252151
427, هاب ,tehran,دروازه شمیران,02177677254,2,09:00:00,00:00:00,دروازه شمیران، میدان ابن سینا، خیابان مازندران,False,True,False,False,False,False,False,True,5,4,5,5,0,35.6996677866661,51.44003212451935
428, کلندی جلاتو ,tehran,یوسف آباد,02188601114,2,10:00:00,00:00:00,یوسف آباد،خیابان اسد آبادی،بین ۴۳ و ۴۵ ،جنب بانک رفاه,False,False,True,False,False,False,False,True,0,0,0,0,0,35.73968899849939,51.4054624736309
429, کاما ,tehran,تقاطع خیابان بهشتی و سهرودی پلاک ۱۳۶,02188416061,2,09:00:00,23:00:00,تقاطع خیابان بهشتی و سهرودی پلاک ۱۳۶,False,False,True,False,True,False,False,True,3,4,3,3,0,35.73117725225446,51.43879950537603
430, دلواز ,tehran,شهرک غرب,02188574755,2,09:00:00,22:00:00,شهرک غرب، فاز 1 خ ایران زمین،مرکزخریدگلستان، حیاط شرقی,False,False,False,False,False,False,False,True,0,0,0,0,0,35.75968580734683,51.38404369354248
431, سدل روم ,tehran,شهرک غرب,02188078088,2,08:30:00,22:30:00,"شهرک غرب، فاز ۴، خیابان فلامک شمالی،
نبش کوچه پنجم، پلاک ۲۸",False,False,True,False,True,False,False,True,0,0,0,0,0,35.76378304988335,51.35758638381958
432, ویگو ,tehran,تجريش ميدان قدس ابتداى خيابان باهنر پلاك ٥٧١,,2,07:30:00,23:30:00,تجريش ميدان قدس ابتداى خيابان باهنر پلاك ٥٧١,False,False,False,False,False,False,False,True,0,0,0,0,0,35.80497899788529,51.43477313069836
433, بابا طاهر ,tehran,نرسیده به میدان شاپور بین خیابان طبرستان و بشیری پلاک۶۴۸,02155381966,2,11:00:00,00:00:00,نرسیده به میدان شاپور بین خیابان طبرستان و بشیری پلاک۶۴۸,False,False,False,False,True,False,False,True,0,0,0,0,0,35.67494153388337,51.40775978565216
434, گروک ,tehran,شهران جنوبی,02144368429,2,10:00:00,00:00:00,شهران جنوبی، بلوار کوهسار، خیابان فرهنگ، مجتمع کوهسار،بلوکB، واحد تجاری یک,False,False,False,True,False,False,False,True,0,0,0,0,0,35.76027347262506,51.28417164087295
435, لوزان ,tehran,خیابان سپهبد قرنی,0219217260653,2,06:00:00,23:30:00,خیابان سپهبد قرنی، خیابان شاداب، پلاک ۵۲، جنب هتل قدس,False,False,False,False,False,False,False,True,0,0,0,0,0,35.71008101783195,51.41586273908615
436, کانتینر (سعادت آباد) ,tehran,سعادت آباد,02122140603,2,08:00:00,00:00:00,سعادت آباد، میدان فرهنگ، بلوار ۲۴ متری، نبش هفتم شرقی,False,False,True,False,False,False,False,True,0,0,0,0,0,35.78571739137356,51.38445675373077
437, سیزده 50 ,tehran,سعادت آباد,02122359015,2,09:00:00,00:00:00,سعادت آباد،بالاتر از میدان کاج، بین خیابان عبقری و گلستان دوم,False,False,True,False,True,False,False,True,0,0,0,0,0,35.78727146542373,51.3732598721981
438, ریزوتو (زعفرانیه) ,tehran,زعفرانیه,02122180851,2,11:00:00,00:00:00,زعفرانیه، میدان اعجازی، بلوار بهزادی، بن بست بهار,False,True,False,False,False,True,True,True,0,0,0,0,0,35.80888664247605,51.40935301780701
439, عمارت پلاک 85 ,tehran,یوسف آباد,02186053695,2,11:00:00,23:30:00,یوسف آباد، خیابان شهید اکبری، روبروی سی و سوم، پلاک ۸۵,False,True,False,False,False,False,False,True,4,4,4,4,0,35.735831640492,51.40900433063507
440, دریم لند ,tehran,بلوار فردوس شرق,02144978731,2,16:00:00,00:00:00,بلوار فردوس شرق، بين خیابان عقيل و حسن آباد،پلاك ٣٦٧,False,False,False,False,False,False,False,True,0,0,0,0,0,35.72419097903579,51.31342559970211
441, طهران تهران ,tehran,خیابان جمهوری,02133934524,2,12:00:00,16:00:00,خیابان جمهوری، جنب متروی سعدی، پلاک ۲۰۵,False,False,True,False,False,True,False,True,0,0,0,0,0,35.69317424955978,51.42477839022511
442, ال ماسو ,tehran,تهرانپارس,02177200495,2,11:00:00,23:00:00,تهرانپارس، بالاتر از فلکه سوم، انتهای خیابان خدابنده، ساختمان امیران,False,False,False,False,False,False,False,True,0,0,0,0,0,35.743472696272,51.54298670589924
443, خشت بهشت ,tehran,خیابان پیروزی,02133319225,2,12:00:00,00:00:00,خیابان پیروزی، صد دستگاه، پلاک524,False,False,False,False,False,False,False,True,4,4,5,4,0,35.69132489469821,51.47228971123695
444, تاریخ ,tehran,وصال شیرازی,02188997229,2,09:00:00,20:00:00,وصال شیرازی، نرسیده به بلوارکشاورز، بالاتر از ایتالیا، کوچه مریم، کاشی۵,False,False,False,False,False,False,False,True,4,5,5,4,0,35.70758836963549,51.39876902103424
445, یونیس ,tehran,خیابان استخر,02177060312,2,11:00:00,00:00:00,خیابان استخر، بلوار استقلال، جنب پارک پلیس، ابتدا خیابان صاحب الزمان شمالی، پلاک 12، طبقه اول,False,True,False,False,False,False,False,True,3,2,3,3,0,35.75653192953071,51.54614299535751
446, سایدا ,tehran,شهران شمالی,02144314051,2,12:00:00,00:00:00,شهران شمالی،بالاتر از فلکه سوم،جنب کارواش پدربزرگ,True,False,False,True,True,False,True,True,4,3,4,4,0,35.77726165178188,51.29349768161774
447, سوییت بار ,tehran,بزرگراه شهید محلاتی,02133519430,2,11:00:00,23:00:00,بزرگراه شهید محلاتی،حد فاصل پُل ری و پُل آهنگ،پلاک ۳۳۸,False,False,False,False,False,False,False,True,0,0,0,0,0,35.67382703814591,51.44203305244446
448, رادیو سیتی ,tehran,زعفرانیه,02122179245,2,08:30:00,23:30:00,زعفرانیه، سه راه آصف،مجتمع تجاری بامیک,False,True,False,False,False,True,True,True,0,0,0,0,0,35.80814924648647,51.41917861998081
449, مزون ,tehran,دروس,02122765436,2,08:00:00,23:00:00,دروس، میدان هدایت، خیابان شادلو، خیابان کماسایی، پلاک۴۷,False,False,True,False,False,False,False,True,0,0,0,0,0,35.77269613596712,51.45198941230774
450, بلو بیسترو ,tehran,بزرگراه آیت الله کاشانی,02144000999,2,12:00:00,00:00:00,بزرگراه آیت الله کاشانی،نبش خیابان عقیل,False,False,True,False,False,False,False,True,0,0,0,0,0,35.728968094763,51.31624182506202
451, چهل ,tehran,سعادت آباد,02188095152,2,08:30:00,23:00:00,سعادت آباد، خیابان ۳۸، نبش تقاطع نبی اکرم و خیابان ۴۰,False,False,False,False,True,False,False,True,0,0,0,0,0,35.77153186572769,51.37980915606022
452, سینتیا ,tehran,فرمانیه,02126253102,2,12:00:00,23:30:00,فرمانیه،نبش نارجستان چهارم،مجتمع ارتمیس،طبقه دوم,False,True,True,False,False,False,False,True,3,3,4,2,0,35.79610686227774,51.47601462900638
453, الیاسام ,tehran,حکیم غرب,02144998732,2,12:00:00,00:00:00,حکیم غرب، خروجی لشگری غرب گذر,False,True,False,False,False,False,False,True,4,2,4,4,0,35.73754290012394,51.11815094947815
454, راکان ,tehran,انتهای اتوبان ستاری شمال,02144847702,2,11:00:00,23:00:00,انتهای اتوبان ستاری شمال،میدان دانشگاه،نبش خیابان مخابرات,False,False,True,False,False,False,False,True,2,2,4,3,0,35.77809072829246,51.32214903831482
455, کولی ,tehran,سـعادت آباد,02188690973,2,08:00:00,21:00:00,سـعادت آباد، بلوار دریـا، صرافهـا جنوبی، ۳۱غـربی,False,False,False,False,False,False,False,True,0,0,0,0,0,35.77218901008507,51.3748840710271
456, پاگانی ,tehran,پاسداران,02126650261,2,09:00:00,00:00:00,پاسداران، خيابان داوود اسلامی، بالاتر از خيابان گيلان، پلاك 12.2 ، طبقه دوم,False,True,False,False,False,False,False,True,1,1,1,1,0,35.76173119025713,51.46155618131161
457, لی وان زغالچی ,tehran,شهر آرا,02166436782,2,08:00:00,00:00:00,شهر آرا، پایین تر از اداره گذرنامه، نبش کوچه هفتم(اکبرزاده),False,False,True,False,False,False,False,True,4,5,4,5,0,35.71446937022272,51.37127101421356
458, دنده شیشا ,tehran,اندرزگو,0219123059935,2,11:00:00,00:00:00,اندرزگو، نبش کاوه، کنار رستوران ضیافت، کوچه نیکو ، پلاک۱، طبقه -۱,False,False,False,False,False,False,False,True,1,1,1,1,0,35.79559304800089,51.44313941809655
459, نون ,tehran,خیابان حافظ,02166756044,2,10:00:00,23:00:00,خیابان حافظ، روبروی تالار وحدت,False,False,False,False,False,False,False,True,0,0,0,0,0,35.6995350308919,51.41185766543422
460, تراس ایده ,tehran,خیابان کریمخان,02188308145,2,12:00:00,22:00:00,خیابان کریمخان، خیابان سنایی، کوچه هجدهم، پلاک ۲۶، طبقه دوم‌,False,True,True,False,False,False,False,True,0,0,0,0,0,35.71975358405844,51.41972243785858
461, یاسمینا ,tehran,سعادت آباد,02188688629,2,12:30:00,23:00:00,سعادت آباد،نبش نفيسي غربي (٢٣)،پلاك ٧٢/١,False,False,True,False,True,False,False,True,0,0,0,0,0,35.77330655495428,51.37027725577354
462, اسکای لانژ ,tehran,سعادت آباد,02175675000,2,19:00:00,02:00:00,سعادت آباد، میدان بهرود، خیابان 33، هتل اسپیناس پالاس,True,False,True,True,True,False,False,True,2,2,4,2,0,35.79321713638507,51.35653495788574
463, هاوس لرت ,tehran,اقدسيه,02126158238,2,11:00:00,20:00:00,اقدسيه، موحددانش، پلاك ١١٠،مجتمع پلاتين,False,False,False,True,False,False,False,True,0,0,0,0,0,35.80533663786173,51.47489547729492
464, عمارت آرنوش ,tehran,خیابان کریمخان,02188867427,2,11:00:00,22:00:00,خیابان کریمخان، بین خیابان ایرانشهر و خردمند جنوبی، خیابان ماهشهر، کوچه ملکیان، پلاک ۱۸,False,False,False,False,True,False,False,True,0,0,0,0,0,35.71453034810717,51.42058610916138
465, بیست و چهار ,tehran,سعادت آباد,02109123725424,2,11:00:00,23:30:00,سعادت آباد،سرو غربي،١٨ متري مطهري،پلاك ١٢,False,True,True,False,False,False,False,True,0,0,0,0,0,35.77655660353789,51.36224001646042
466, خانه میرا ,tehran,خیابان فلسطین جنوبی,02166459765,2,11:00:00,23:00:00,خیابان فلسطین جنوبی، خیابان لبافی نژاد، کاشی ۸۷,False,False,False,False,False,False,False,True,3,4,4,4,0,35.69722545727805,51.40010006725788
467, کورلئونه ,tehran,شهرک غرب,02188563972,2,08:30:00,20:00:00,شهرک غرب، بلوار دریا به سمت شرق، بعد از میدان کوثر، رو به رو پارک دلاوران، خیابان 21 متری گلها,False,True,False,False,False,False,False,True,3,4,3,3,0,35.77021741678577,51.37247800827026
468, دانته (مرزداران) ,tehran,بلوار مرزداران,02144231372,2,12:00:00,00:00:00,بلوار مرزداران، جنب شیرینی ماه بانو، پلاک ١٨٥,False,True,False,False,False,False,False,True,1,1,3,4,0,35.73626460242747,51.33925567011112
469, عمارت یار ,tehran,خیابان طالقانی,02109332672244,2,09:00:00,20:00:00,خیابان طالقانی، خیابان حافظ، خیابان رشت، پلاک ۴۱,False,False,False,False,True,False,False,True,3,3,4,3,0,35.7053809660301,51.40955954790115
470, فرمو ,tehran,خیابان گاندی,02188886240,2,07:00:00,23:00:00,خیابان گاندی، ضلع شمالی پل همت,False,False,True,False,False,False,False,True,4,5,5,4,0,35.75210381043364,51.41233066114905
471, شاپرک (جمهوری) ,tehran,میدان جمهوری,02166913860,2,10:30:00,23:00:00,میدان جمهوری، نبش خیابان ارومیه,True,False,False,True,False,False,False,True,0,0,0,0,0,35.69771501826016,51.37856394052505
472, اسپیناچ ,tehran,سعادت آباد,02122382637,2,09:00:00,00:00:00,سعادت آباد،بلوار کوهستان، مجتمع اپال طبقه ۵,False,True,True,False,False,False,False,True,0,0,0,0,0,35.77722248259901,51.35129526257515
473, سماع افلاک ,tehran,مرزداران غربی,02144262252,2,09:00:00,00:00:00,مرزداران غربی، خیابان ابراهیمی، برج الوند طبقه ۲,False,False,True,False,False,False,False,True,0,0,0,0,0,35.73373497073605,51.34550839662552
474, درچه ,tehran,سعادت آباد,02122362882,2,08:00:00,00:00:00,سعادت آباد، خیابان کوهستان، مجتمع تجاری اپال طبقه ي ششم,False,False,False,False,False,False,True,True,5,4,5,3,0,35.77722193858244,51.35129526257515
475, پیراشکی خسروی ,tehran,خیابان جمهوری,02166763759,2,08:30:00,22:00:00,خیابان جمهوری، جنب کافه نادری، پلاک688,False,False,False,False,False,False,False,True,0,0,0,0,0,35.69494098114851,51.41559720039368
